{"type":"FeatureCollection","features":[{"type":"Feature","properties":{"id":4636,"mesa_hasta":10,"codigo_dis":"1","mesa_desde":1,"codigo_pos":null,"cant_mesas":"10","direccion":"AV SAN JUAN 353","seccion":"1","circuito":"1","localidad":"CAP FED","distrito":"CAPITAL FEDERAL","establecim":"ESC N°26 HIPOLITO YRIGOYEN","dne_distri":1,"dne_seccio":1,"cartodb_id":1,"created_at":"2013-08-12T00:10:49Z","updated_at":"2013-08-12T00:11:40Z"},"geometry":{"type":"Point","coordinates":[-58.370438,-34.621623]}},{"type":"Feature","properties":{"id":4637,"mesa_hasta":31,"codigo_dis":"1","mesa_desde":18,"codigo_pos":null,"cant_mesas":"14","direccion":"BOLIVAR 1235","seccion":"1","circuito":"1","localidad":"CAP FED","distrito":"CAPITAL FEDERAL","establecim":"ESC N°3 BERNARDINO RIVADAVIA","dne_distri":1,"dne_seccio":1,"cartodb_id":2,"created_at":"2013-08-12T00:10:49Z","updated_at":"2013-08-12T00:11:40Z"},"geometry":{"type":"Point","coordinates":[-58.372902,-34.622337]}},{"type":"Feature","properties":{"id":4638,"mesa_hasta":17,"codigo_dis":"1","mesa_desde":11,"codigo_pos":null,"cant_mesas":"7","direccion":"AV J DE GARAY 556/AV J DE  GARAY S/N","seccion":"1","circuito":"1","localidad":"CAP FED","distrito":"CAPITAL FEDERAL","establecim":"INSTITUTO MARIA AUXILIADORA","dne_distri":1,"dne_seccio":1,"cartodb_id":3,"created_at":"2013-08-12T00:10:49Z","updated_at":"2013-08-12T00:11:40Z"},"geometry":{"type":"Point","coordinates":[-58.373422,-34.625438]}},{"type":"Feature","properties":{"id":4639,"mesa_hasta":45,"codigo_dis":"1","mesa_desde":32,"codigo_pos":null,"cant_mesas":"14","direccion":"AV INDEPENDENCIA 758","seccion":"1","circuito":"2","localidad":"CAP FED","distrito":"CAPITAL FEDERAL","establecim":"ESC Nº1 VALENTIN GOMEZ","dne_distri":1,"dne_seccio":1,"cartodb_id":4,"created_at":"2013-08-12T00:10:49Z","updated_at":"2013-08-12T00:11:40Z"},"geometry":{"type":"Point","coordinates":[-58.376803,-34.617583]}},{"type":"Feature","properties":{"id":4640,"mesa_hasta":52,"codigo_dis":"1","mesa_desde":46,"codigo_pos":null,"cant_mesas":"7","direccion":"PERU 946","seccion":"1","circuito":"2","localidad":"CAP FED","distrito":"CAPITAL FEDERAL","establecim":"ESC Nº21 HIPOLITO VIEYTES","dne_distri":1,"dne_seccio":1,"cartodb_id":5,"created_at":"2013-08-12T00:10:49Z","updated_at":"2013-08-12T00:11:40Z"},"geometry":{"type":"Point","coordinates":[-58.374165,-34.618999]}},{"type":"Feature","properties":{"id":4641,"mesa_hasta":62,"codigo_dis":"1","mesa_desde":53,"codigo_pos":null,"cant_mesas":"10","direccion":"HUMBERTO Iº 343","seccion":"1","circuito":"2","localidad":"CAP FED","distrito":"CAPITAL FEDERAL","establecim":"ESCUELA GUILLERMO RAWSON","dne_distri":1,"dne_seccio":1,"cartodb_id":6,"created_at":"2013-08-12T00:10:49Z","updated_at":"2013-08-12T00:11:40Z"},"geometry":{"type":"Point","coordinates":[-58.370616,-34.620577]}},{"type":"Feature","properties":{"id":4642,"mesa_hasta":67,"codigo_dis":"1","mesa_desde":63,"codigo_pos":null,"cant_mesas":"5","direccion":"AV. A. MOREAU DE JUSTO 1400  DIQUE 2","seccion":"1","circuito":"3","localidad":null,"distrito":"CAPITAL FEDERAL","establecim":"UNIVERSIDAD CATOLICA ARGENTINA","dne_distri":1,"dne_seccio":1,"cartodb_id":7,"created_at":"2013-08-12T00:10:49Z","updated_at":"2013-08-12T00:11:40Z"},"geometry":{"type":"Point","coordinates":[-58.365989,-34.613681]}},{"type":"Feature","properties":{"id":4643,"mesa_hasta":72,"codigo_dis":"1","mesa_desde":68,"codigo_pos":null,"cant_mesas":"5","direccion":"AV. A. MOREAU DE JUSTO 1400  DIQUE 2","seccion":"1","circuito":"4","localidad":"PUERTO MADERO","distrito":"CAPITAL FEDERAL","establecim":"UNIVERSIDAD CATOLICA ARGENTINA","dne_distri":1,"dne_seccio":1,"cartodb_id":8,"created_at":"2013-08-12T00:10:49Z","updated_at":"2013-08-12T00:11:40Z"},"geometry":{"type":"Point","coordinates":[-58.365989,-34.613681]}},{"type":"Feature","properties":{"id":4644,"mesa_hasta":94,"codigo_dis":"1","mesa_desde":86,"codigo_pos":null,"cant_mesas":"9","direccion":"LETONIA S/N Y ANT ARG","seccion":"1","circuito":"5","localidad":"CAP FED","distrito":"CAPITAL FEDERAL","establecim":"EMEM Nº6 PADRE C MUGICA","dne_distri":1,"dne_seccio":1,"cartodb_id":9,"created_at":"2013-08-12T00:10:49Z","updated_at":"2013-08-12T00:11:40Z"},"geometry":{"type":"Point","coordinates":[-58.370583,-34.588027]}},{"type":"Feature","properties":{"id":4645,"mesa_hasta":85,"codigo_dis":"1","mesa_desde":73,"codigo_pos":null,"cant_mesas":"13","direccion":"EEUU DEL BRASIL S/N Y ANT ARG","seccion":"1","circuito":"5","localidad":"CAP FED","distrito":"CAPITAL FEDERAL","establecim":"ESC Nº25 BANDERA ARGENTINA","dne_distri":1,"dne_seccio":1,"cartodb_id":10,"created_at":"2013-08-12T00:10:49Z","updated_at":"2013-08-12T00:11:40Z"},"geometry":{"type":"Point","coordinates":[-58.370583,-34.588027]}},{"type":"Feature","properties":{"id":4646,"mesa_hasta":136,"codigo_dis":"1","mesa_desde":116,"codigo_pos":null,"cant_mesas":"21","direccion":"LIBERTAD 1257","seccion":"1","circuito":"6","localidad":"CAP FED","distrito":"CAPITAL FEDERAL","establecim":"COL. NAC.Nº2 D F SARMIENTO","dne_distri":1,"dne_seccio":1,"cartodb_id":11,"created_at":"2013-08-12T00:10:49Z","updated_at":"2013-08-12T00:11:40Z"},"geometry":{"type":"Point","coordinates":[-58.384322,-34.593517]}},{"type":"Feature","properties":{"id":4647,"mesa_hasta":115,"codigo_dis":"1","mesa_desde":95,"codigo_pos":null,"cant_mesas":"21","direccion":"AV PTE QUINTANA 31","seccion":"1","circuito":"6","localidad":"CAP FED","distrito":"CAPITAL FEDERAL","establecim":"ESC Nº2 D F SARMIENTO","dne_distri":1,"dne_seccio":1,"cartodb_id":12,"created_at":"2013-08-12T00:10:49Z","updated_at":"2013-08-12T00:11:40Z"},"geometry":{"type":"Point","coordinates":[-58.384847,-34.592264]}},{"type":"Feature","properties":{"id":4648,"mesa_hasta":142,"codigo_dis":"1","mesa_desde":137,"codigo_pos":null,"cant_mesas":"6","direccion":"CARLOS PELLEGRINI 1515","seccion":"1","circuito":"6","localidad":"CAP FED","distrito":"CAPITAL FEDERAL","establecim":"INST SUP DE LENGUAS VIVAS","dne_distri":1,"dne_seccio":1,"cartodb_id":13,"created_at":"2013-08-12T00:10:49Z","updated_at":"2013-08-12T00:11:40Z"},"geometry":{"type":"Point","coordinates":[-58.381393,-34.590919]}},{"type":"Feature","properties":{"id":4649,"mesa_hasta":167,"codigo_dis":"1","mesa_desde":153,"codigo_pos":null,"cant_mesas":"15","direccion":"M T DE ALVEAR 1335","seccion":"1","circuito":"7","localidad":"CAP FED","distrito":"CAPITAL FEDERAL","establecim":"USAL FACULTAD DE CS ECONOMICAS","dne_distri":1,"dne_seccio":1,"cartodb_id":14,"created_at":"2013-08-12T00:10:49Z","updated_at":"2013-08-12T00:11:40Z"},"geometry":{"type":"Point","coordinates":[-58.386224,-34.59694]}},{"type":"Feature","properties":{"id":4650,"mesa_hasta":152,"codigo_dis":"1","mesa_desde":143,"codigo_pos":null,"cant_mesas":"10","direccion":"MARCELO T DE ALVEAR 1312","seccion":"1","circuito":"7","localidad":"CAP FED","distrito":"CAPITAL FEDERAL","establecim":"USAL FACULTAD DE PSICOLOGIA","dne_distri":1,"dne_seccio":1,"cartodb_id":15,"created_at":"2013-08-12T00:10:49Z","updated_at":"2013-08-12T00:11:40Z"},"geometry":{"type":"Point","coordinates":[-58.386283,-34.597015]}},{"type":"Feature","properties":{"id":4651,"mesa_hasta":193,"codigo_dis":"1","mesa_desde":188,"codigo_pos":null,"cant_mesas":"6","direccion":"PARAGUAY 834","seccion":"1","circuito":"8","localidad":"CAP FED","distrito":"CAPITAL FEDERAL","establecim":"COLEGIO SAN MARON","dne_distri":1,"dne_seccio":1,"cartodb_id":16,"created_at":"2013-08-12T00:10:49Z","updated_at":"2013-08-12T00:11:40Z"},"geometry":{"type":"Point","coordinates":[-58.378846,-34.597768]}},{"type":"Feature","properties":{"id":4652,"mesa_hasta":180,"codigo_dis":"1","mesa_desde":168,"codigo_pos":null,"cant_mesas":"13","direccion":"BASAVILBASO 1295","seccion":"1","circuito":"8","localidad":"CAP FED","distrito":"CAPITAL FEDERAL","establecim":"ESC Nº6 FRENCH Y BERUTI","dne_distri":1,"dne_seccio":1,"cartodb_id":17,"created_at":"2013-08-12T00:10:49Z","updated_at":"2013-08-12T00:11:40Z"},"geometry":{"type":"Point","coordinates":[-58.37702,-34.593035]}},{"type":"Feature","properties":{"id":4653,"mesa_hasta":187,"codigo_dis":"1","mesa_desde":181,"codigo_pos":null,"cant_mesas":"7","direccion":"PARAGUAY 1318","seccion":"1","circuito":"8","localidad":"CAP FED","distrito":"CAPITAL FEDERAL","establecim":"UCES UNIV. DE CS SOC Y EMP","dne_distri":1,"dne_seccio":1,"cartodb_id":18,"created_at":"2013-08-12T00:10:49Z","updated_at":"2013-08-12T00:11:40Z"},"geometry":{"type":"Point","coordinates":[-58.38602,-34.59824]}},{"type":"Feature","properties":{"id":4654,"mesa_hasta":227,"codigo_dis":"1","mesa_desde":216,"codigo_pos":null,"cant_mesas":"12","direccion":"ESMERALDA 759","seccion":"1","circuito":"9","localidad":"CAP FED","distrito":"CAPITAL FEDERAL","establecim":"COLEGIO DE NUESTRA SEÑORA","dne_distri":1,"dne_seccio":1,"cartodb_id":19,"created_at":"2013-08-12T00:10:49Z","updated_at":"2013-08-12T00:11:40Z"},"geometry":{"type":"Point","coordinates":[-58.378125,-34.599616]}},{"type":"Feature","properties":{"id":4655,"mesa_hasta":206,"codigo_dis":"1","mesa_desde":194,"codigo_pos":null,"cant_mesas":"13","direccion":"SAN MARTIN 458","seccion":"1","circuito":"9","localidad":"CAP FED","distrito":"CAPITAL FEDERAL","establecim":"ESC N°13 GRAL SAN MARTIN","dne_distri":1,"dne_seccio":1,"cartodb_id":20,"created_at":"2013-08-12T00:10:49Z","updated_at":"2013-08-12T00:11:40Z"},"geometry":{"type":"Point","coordinates":[-58.37398,-34.60266]}},{"type":"Feature","properties":{"id":4656,"mesa_hasta":215,"codigo_dis":"1","mesa_desde":207,"codigo_pos":null,"cant_mesas":"9","direccion":"RECONQUISTA 461","seccion":"1","circuito":"9","localidad":"CAP FED","distrito":"CAPITAL FEDERAL","establecim":"ESC N°4 CATEDRAL J M ESTRADA","dne_distri":1,"dne_seccio":1,"cartodb_id":21,"created_at":"2013-08-12T00:10:49Z","updated_at":"2013-08-12T00:11:40Z"},"geometry":{"type":"Point","coordinates":[-58.372399,-34.602424]}},{"type":"Feature","properties":{"id":4657,"mesa_hasta":239,"codigo_dis":"1","mesa_desde":228,"codigo_pos":null,"cant_mesas":"12","direccion":"RODRIGUEZ PEÑA 747","seccion":"1","circuito":"10","localidad":"CAP FED","distrito":"CAPITAL FEDERAL","establecim":"ESC N°5 RODRIGUEZ PEÑA","dne_distri":1,"dne_seccio":1,"cartodb_id":22,"created_at":"2013-08-12T00:10:49Z","updated_at":"2013-08-12T00:11:40Z"},"geometry":{"type":"Point","coordinates":[-58.391293,-34.600399]}},{"type":"Feature","properties":{"id":4658,"mesa_hasta":249,"codigo_dis":"1","mesa_desde":240,"codigo_pos":null,"cant_mesas":"10","direccion":"LIBERTAD 581","seccion":"1","circuito":"10","localidad":"CAP FED","distrito":"CAPITAL FEDERAL","establecim":"ESC N°7 PTE ROCA","dne_distri":1,"dne_seccio":1,"cartodb_id":23,"created_at":"2013-08-12T00:10:49Z","updated_at":"2013-08-12T00:11:40Z"},"geometry":{"type":"Point","coordinates":[-58.383737,-34.601674]}},{"type":"Feature","properties":{"id":4659,"mesa_hasta":264,"codigo_dis":"1","mesa_desde":250,"codigo_pos":null,"cant_mesas":"15","direccion":"TALCAHUANO 680","seccion":"1","circuito":"10","localidad":"CAP FED","distrito":"CAPITAL FEDERAL","establecim":"ESC N°8 NICOLAS AVELLANEDA","dne_distri":1,"dne_seccio":1,"cartodb_id":24,"created_at":"2013-08-12T00:10:49Z","updated_at":"2013-08-12T00:11:40Z"},"geometry":{"type":"Point","coordinates":[-58.385472,-34.600747]}},{"type":"Feature","properties":{"id":4660,"mesa_hasta":274,"codigo_dis":"1","mesa_desde":265,"codigo_pos":null,"cant_mesas":"10","direccion":"TTE GRAL J D PERON 1140","seccion":"1","circuito":"11","localidad":"CAP FED","distrito":"CAPITAL FEDERAL","establecim":"ESC N°9 FAMILIA DE CABEZON","dne_distri":1,"dne_seccio":1,"cartodb_id":25,"created_at":"2013-08-12T00:10:49Z","updated_at":"2013-08-12T00:11:40Z"},"geometry":{"type":"Point","coordinates":[-58.382626,-34.606264]}},{"type":"Feature","properties":{"id":4661,"mesa_hasta":303,"codigo_dis":"1","mesa_desde":296,"codigo_pos":null,"cant_mesas":"8","direccion":"LAVALLE 1681/ RODRIGUEZ  PEÑA 551","seccion":"1","circuito":"11","localidad":null,"distrito":"CAPITAL FEDERAL","establecim":"ESC TEC N° 19 ALEJANDRO VOLTA","dne_distri":1,"dne_seccio":1,"cartodb_id":26,"created_at":"2013-08-12T00:10:49Z","updated_at":"2013-08-12T00:11:40Z"},"geometry":{"type":"Point","coordinates":[-58.390844,-34.602959]}},{"type":"Feature","properties":{"id":4662,"mesa_hasta":295,"codigo_dis":"1","mesa_desde":292,"codigo_pos":null,"cant_mesas":"4","direccion":"URUGUAY 57","seccion":"1","circuito":"11","localidad":"CAP FED","distrito":"CAPITAL FEDERAL","establecim":"FUND DE ALTOS EST EN CS COMERC","dne_distri":1,"dne_seccio":1,"cartodb_id":27,"created_at":"2013-08-12T00:10:49Z","updated_at":"2013-08-12T00:11:40Z"},"geometry":{"type":"Point","coordinates":[-58.386196,-34.608121]}},{"type":"Feature","properties":{"id":4663,"mesa_hasta":291,"codigo_dis":"1","mesa_desde":284,"codigo_pos":null,"cant_mesas":"8","direccion":"AV CORRIENTES 1723","seccion":"1","circuito":"11","localidad":"CAP FED","distrito":"CAPITAL FEDERAL","establecim":"UMSA UNIV MUSEO SOC ARGENTINO","dne_distri":1,"dne_seccio":1,"cartodb_id":28,"created_at":"2013-08-12T00:10:49Z","updated_at":"2013-08-12T00:11:40Z"},"geometry":{"type":"Point","coordinates":[-58.39125,-34.604422]}},{"type":"Feature","properties":{"id":4664,"mesa_hasta":283,"codigo_dis":"1","mesa_desde":275,"codigo_pos":null,"cant_mesas":"9","direccion":"MARCELO T DE ALVEAR 1312","seccion":"1","circuito":"11","localidad":"CAP FED","distrito":"CAPITAL FEDERAL","establecim":"USAL FACULTAD DE PSICOLOGIA","dne_distri":1,"dne_seccio":1,"cartodb_id":29,"created_at":"2013-08-12T00:10:49Z","updated_at":"2013-08-12T00:11:40Z"},"geometry":{"type":"Point","coordinates":[-58.385768,-34.597015]}},{"type":"Feature","properties":{"id":4665,"mesa_hasta":318,"codigo_dis":"1","mesa_desde":304,"codigo_pos":null,"cant_mesas":"15","direccion":"SOLIS 252","seccion":"1","circuito":"12","localidad":"CAP FED","distrito":"CAPITAL FEDERAL","establecim":"COLEGIO DON BOSCO","dne_distri":1,"dne_seccio":1,"cartodb_id":30,"created_at":"2013-08-12T00:10:49Z","updated_at":"2013-08-12T00:11:40Z"},"geometry":{"type":"Point","coordinates":[-58.390248,-34.611991]}},{"type":"Feature","properties":{"id":4666,"mesa_hasta":330,"codigo_dis":"1","mesa_desde":327,"codigo_pos":null,"cant_mesas":"4","direccion":"AV BELGRANO 1344","seccion":"1","circuito":"12","localidad":"CAPITAL FEDERAL","distrito":"CAPITAL FEDERAL","establecim":"INST NTRA SRA DE MONSERRAT","dne_distri":1,"dne_seccio":1,"cartodb_id":31,"created_at":"2013-08-12T00:10:49Z","updated_at":"2013-08-12T00:11:40Z"},"geometry":{"type":"Point","coordinates":[-58.385291,-34.613543]}},{"type":"Feature","properties":{"id":4667,"mesa_hasta":326,"codigo_dis":"1","mesa_desde":319,"codigo_pos":null,"cant_mesas":"8","direccion":"AV BELGRANO 1548","seccion":"1","circuito":"12","localidad":"CAP FED","distrito":"CAPITAL FEDERAL","establecim":"INSTITUTO LOS ROBLES","dne_distri":1,"dne_seccio":1,"cartodb_id":32,"created_at":"2013-08-12T00:10:49Z","updated_at":"2013-08-12T00:11:40Z"},"geometry":{"type":"Point","coordinates":[-58.388142,-34.613734]}},{"type":"Feature","properties":{"id":4668,"mesa_hasta":339,"codigo_dis":"1","mesa_desde":331,"codigo_pos":null,"cant_mesas":"9","direccion":"BARTOLOME MITRE 1655","seccion":"1","circuito":"12","localidad":"CAPITAL FEDERAL","distrito":"CAPITAL FEDERAL","establecim":"INSTITUTO SANTA ROSA","dne_distri":1,"dne_seccio":1,"cartodb_id":33,"created_at":"2013-08-12T00:10:49Z","updated_at":"2013-08-12T00:11:40Z"},"geometry":{"type":"Point","coordinates":[-58.390044,-34.607781]}},{"type":"Feature","properties":{"id":4669,"mesa_hasta":368,"codigo_dis":"1","mesa_desde":363,"codigo_pos":null,"cant_mesas":"6","direccion":"CHILE 1371","seccion":"1","circuito":"13","localidad":"CAP FED","distrito":"CAPITAL FEDERAL","establecim":"ESC N°13 PCIA S DEL ESTERO","dne_distri":1,"dne_seccio":1,"cartodb_id":34,"created_at":"2013-08-12T00:10:49Z","updated_at":"2013-08-12T00:11:40Z"},"geometry":{"type":"Point","coordinates":[-58.385498,-34.616563]}},{"type":"Feature","properties":{"id":4670,"mesa_hasta":356,"codigo_dis":"1","mesa_desde":348,"codigo_pos":null,"cant_mesas":"9","direccion":"PTE L SAENZ PEÑA 463","seccion":"1","circuito":"13","localidad":"CAP FED","distrito":"CAPITAL FEDERAL","establecim":"ESC N°14 GRAL M NECOCHEA","dne_distri":1,"dne_seccio":1,"cartodb_id":35,"created_at":"2013-08-12T00:10:49Z","updated_at":"2013-08-12T00:11:40Z"},"geometry":{"type":"Point","coordinates":[-58.387624,-34.614203]}},{"type":"Feature","properties":{"id":4671,"mesa_hasta":362,"codigo_dis":"1","mesa_desde":357,"codigo_pos":null,"cant_mesas":"6","direccion":"CHILE 1670","seccion":"1","circuito":"13","localidad":"CAP FED","distrito":"CAPITAL FEDERAL","establecim":"ESC N°2 FRAY C RODRIGUEZ","dne_distri":1,"dne_seccio":1,"cartodb_id":36,"created_at":"2013-08-12T00:10:49Z","updated_at":"2013-08-12T00:11:40Z"},"geometry":{"type":"Point","coordinates":[-58.389939,-34.616876]}},{"type":"Feature","properties":{"id":4672,"mesa_hasta":377,"codigo_dis":"1","mesa_desde":369,"codigo_pos":null,"cant_mesas":"9","direccion":"CARLOS CALVO 1140","seccion":"1","circuito":"13","localidad":"CAPITAL FEDERAL","distrito":"CAPITAL FEDERAL","establecim":"ESC N°7 GRAL GUEMES","dne_distri":1,"dne_seccio":1,"cartodb_id":37,"created_at":"2013-08-12T00:10:49Z","updated_at":"2013-08-12T00:11:40Z"},"geometry":{"type":"Point","coordinates":[-58.382184,-34.619873]}},{"type":"Feature","properties":{"id":4673,"mesa_hasta":347,"codigo_dis":"1","mesa_desde":340,"codigo_pos":null,"cant_mesas":"8","direccion":"LIMA 761 / INDEPENDENCIA  1127","seccion":"1","circuito":"13","localidad":"CAP FED","distrito":"CAPITAL FEDERAL","establecim":"UADE UNIV ARG DE LA EMPRESA","dne_distri":1,"dne_seccio":1,"cartodb_id":38,"created_at":"2013-08-12T00:10:49Z","updated_at":"2013-08-12T00:11:40Z"},"geometry":{"type":"Point","coordinates":[-58.38172,-34.617334]}},{"type":"Feature","properties":{"id":4674,"mesa_hasta":393,"codigo_dis":"1","mesa_desde":382,"codigo_pos":null,"cant_mesas":"12","direccion":"BOLIVAR 263 / MORENO 519","seccion":"1","circuito":"14","localidad":"CAPITAL FEDERAL","distrito":"CAPITAL FEDERAL","establecim":"COLEGIO NACIONAL BUENOS AIRES","dne_distri":1,"dne_seccio":1,"cartodb_id":39,"created_at":"2013-08-12T00:10:49Z","updated_at":"2013-08-12T00:11:40Z"},"geometry":{"type":"Point","coordinates":[-58.373637,-34.610964]}},{"type":"Feature","properties":{"id":4675,"mesa_hasta":381,"codigo_dis":"1","mesa_desde":378,"codigo_pos":null,"cant_mesas":"4","direccion":"BOLIVAR 346","seccion":"1","circuito":"14","localidad":"CAP FED","distrito":"CAPITAL FEDERAL","establecim":"ESC POLITECNICA Nº5 M BELGRANO","dne_distri":1,"dne_seccio":1,"cartodb_id":40,"created_at":"2013-08-12T00:10:49Z","updated_at":"2013-08-12T00:11:40Z"},"geometry":{"type":"Point","coordinates":[-58.373237,-34.611883]}},{"type":"Feature","properties":{"id":4676,"mesa_hasta":405,"codigo_dis":"1","mesa_desde":394,"codigo_pos":null,"cant_mesas":"12","direccion":"TACUARI 567","seccion":"1","circuito":"15","localidad":"CAP FED","distrito":"CAPITAL FEDERAL","establecim":"ESC N°3 SANCHEZ DE THOMPSON","dne_distri":1,"dne_seccio":1,"cartodb_id":41,"created_at":"2013-08-12T00:10:49Z","updated_at":"2013-08-12T00:11:40Z"},"geometry":{"type":"Point","coordinates":[-58.37907,-34.614823]}},{"type":"Feature","properties":{"id":4677,"mesa_hasta":415,"codigo_dis":"1","mesa_desde":406,"codigo_pos":null,"cant_mesas":"10","direccion":"VENEZUELA 771","seccion":"1","circuito":"15","localidad":"CAP FED","distrito":"CAPITAL FEDERAL","establecim":"ESC Nº4 CNEL ISIDRO SUAREZ","dne_distri":1,"dne_seccio":1,"cartodb_id":42,"created_at":"2013-08-12T00:10:49Z","updated_at":"2013-08-12T00:11:40Z"},"geometry":{"type":"Point","coordinates":[-58.377141,-34.613857]}},{"type":"Feature","properties":{"id":4678,"mesa_hasta":420,"codigo_dis":"1","mesa_desde":416,"codigo_pos":null,"cant_mesas":"5","direccion":"MORENO 343","seccion":"1","circuito":"15","localidad":"CAPITAL FEDERAL","distrito":"CAPITAL FEDERAL","establecim":"INSTITUTO SAN FRANCISCO","dne_distri":1,"dne_seccio":1,"cartodb_id":43,"created_at":"2013-08-12T00:10:49Z","updated_at":"2013-08-12T00:11:40Z"},"geometry":{"type":"Point","coordinates":[-58.371164,-34.611179]}},{"type":"Feature","properties":{"id":4679,"mesa_hasta":445,"codigo_dis":"1","mesa_desde":440,"codigo_pos":null,"cant_mesas":"6","direccion":"CHACABUCO 922","seccion":"1","circuito":"16","localidad":"CAPITAL FEDERAL","distrito":"CAPITAL FEDERAL","establecim":"COL N°7 J M DE PUEYRREDON","dne_distri":1,"dne_seccio":1,"cartodb_id":44,"created_at":"2013-08-12T00:10:49Z","updated_at":"2013-08-12T00:11:40Z"},"geometry":{"type":"Point","coordinates":[-58.375708,-34.618787]}},{"type":"Feature","properties":{"id":4680,"mesa_hasta":430,"codigo_dis":"1","mesa_desde":421,"codigo_pos":null,"cant_mesas":"10","direccion":"PIEDRAS 1430","seccion":"1","circuito":"16","localidad":"CAP FED","distrito":"CAPITAL FEDERAL","establecim":"ESC N°3 DE RECUPERACION","dne_distri":1,"dne_seccio":1,"cartodb_id":45,"created_at":"2013-08-12T00:10:49Z","updated_at":"2013-08-12T00:11:40Z"},"geometry":{"type":"Point","coordinates":[-58.37641,-34.625341]}},{"type":"Feature","properties":{"id":4681,"mesa_hasta":434,"codigo_dis":"1","mesa_desde":431,"codigo_pos":null,"cant_mesas":"4","direccion":"PIEDRAS 1527","seccion":"1","circuito":"16","localidad":"CAP FED","distrito":"CAPITAL FEDERAL","establecim":"ESC STA CATALINA DE ALEJANDRIA","dne_distri":1,"dne_seccio":1,"cartodb_id":46,"created_at":"2013-08-12T00:10:49Z","updated_at":"2013-08-12T00:11:40Z"},"geometry":{"type":"Point","coordinates":[-58.376185,-34.626566]}},{"type":"Feature","properties":{"id":4682,"mesa_hasta":439,"codigo_dis":"1","mesa_desde":435,"codigo_pos":null,"cant_mesas":"5","direccion":"PERU 1156","seccion":"1","circuito":"16","localidad":"CAP FED","distrito":"CAPITAL FEDERAL","establecim":"UNIV ARGENTINA J F KENNEDY","dne_distri":1,"dne_seccio":1,"cartodb_id":47,"created_at":"2013-08-12T00:10:49Z","updated_at":"2013-08-12T00:11:40Z"},"geometry":{"type":"Point","coordinates":[-58.37406,-34.621426]}},{"type":"Feature","properties":{"id":4683,"mesa_hasta":471,"codigo_dis":"1","mesa_desde":465,"codigo_pos":null,"cant_mesas":"7","direccion":"CARLOS CALVO 1186","seccion":"1","circuito":"17","localidad":"CAP FED","distrito":"CAPITAL FEDERAL","establecim":"COLEGIO INMACULADA CONCEPCION","dne_distri":1,"dne_seccio":1,"cartodb_id":48,"created_at":"2013-08-12T00:10:49Z","updated_at":"2013-08-12T00:11:40Z"},"geometry":{"type":"Point","coordinates":[-58.382686,-34.619855]}},{"type":"Feature","properties":{"id":4684,"mesa_hasta":481,"codigo_dis":"1","mesa_desde":472,"codigo_pos":null,"cant_mesas":"10","direccion":"PTE. LUIS SAENZ PEÑA 1215","seccion":"1","circuito":"17","localidad":"CAPITAL FEDERAL","distrito":"CAPITAL FEDERAL","establecim":"ESC N°11 DR RICARDO GUTIERREZ","dne_distri":1,"dne_seccio":1,"cartodb_id":49,"created_at":"2013-08-12T00:10:49Z","updated_at":"2013-08-12T00:11:40Z"},"geometry":{"type":"Point","coordinates":[-58.387306,-34.622626]}},{"type":"Feature","properties":{"id":4685,"mesa_hasta":460,"codigo_dis":"1","mesa_desde":446,"codigo_pos":null,"cant_mesas":"15","direccion":"HUMBERTO I 1573","seccion":"1","circuito":"17","localidad":"CAP FED","distrito":"CAPITAL FEDERAL","establecim":"ESC N°5 AGUSTIN ALVAREZ","dne_distri":1,"dne_seccio":1,"cartodb_id":50,"created_at":"2013-08-12T00:10:49Z","updated_at":"2013-08-12T00:11:40Z"},"geometry":{"type":"Point","coordinates":[-58.388245,-34.621211]}},{"type":"Feature","properties":{"id":4686,"mesa_hasta":464,"codigo_dis":"1","mesa_desde":461,"codigo_pos":null,"cant_mesas":"4","direccion":"AV SAN JUAN 1774","seccion":"1","circuito":"17","localidad":"CAP FED","distrito":"CAPITAL FEDERAL","establecim":"INST ROSA ANCHORENA DE IBAÑEZ","dne_distri":1,"dne_seccio":1,"cartodb_id":51,"created_at":"2013-08-12T00:10:49Z","updated_at":"2013-08-12T00:11:40Z"},"geometry":{"type":"Point","coordinates":[-58.38256,-34.622146]}},{"type":"Feature","properties":{"id":4687,"mesa_hasta":504,"codigo_dis":"1","mesa_desde":498,"codigo_pos":null,"cant_mesas":"7","direccion":"COCHABAMBA 1414","seccion":"1","circuito":"18","localidad":"CAP FED","distrito":"CAPITAL FEDERAL","establecim":"COLEGIO DE LA PROVIDENCIA","dne_distri":1,"dne_seccio":1,"cartodb_id":52,"created_at":"2013-08-12T00:10:49Z","updated_at":"2013-08-12T00:11:40Z"},"geometry":{"type":"Point","coordinates":[-58.385985,-34.624062]}},{"type":"Feature","properties":{"id":4688,"mesa_hasta":497,"codigo_dis":"1","mesa_desde":489,"codigo_pos":null,"cant_mesas":"9","direccion":"SALTA 1226","seccion":"1","circuito":"18","localidad":"CAP FED","distrito":"CAPITAL FEDERAL","establecim":"ESC N°16 EUSTAQUIO CARDENAS","dne_distri":1,"dne_seccio":1,"cartodb_id":53,"created_at":"2013-08-12T00:10:49Z","updated_at":"2013-08-12T00:11:40Z"},"geometry":{"type":"Point","coordinates":[-58.382825,-34.622618]}},{"type":"Feature","properties":{"id":4689,"mesa_hasta":488,"codigo_dis":"1","mesa_desde":482,"codigo_pos":null,"cant_mesas":"7","direccion":"CONSTITUCION 1650","seccion":"1","circuito":"18","localidad":"CAP FED","distrito":"CAPITAL FEDERAL","establecim":"INSTITUTO HOGAR DEL PINO","dne_distri":1,"dne_seccio":1,"cartodb_id":54,"created_at":"2013-08-12T00:10:49Z","updated_at":"2013-08-12T00:11:40Z"},"geometry":{"type":"Point","coordinates":[-58.388978,-34.625196]}},{"type":"Feature","properties":{"id":4690,"mesa_hasta":524,"codigo_dis":"1","mesa_desde":515,"codigo_pos":null,"cant_mesas":"10","direccion":"SOLIS 1815","seccion":"1","circuito":"19","localidad":"CAP FED","distrito":"CAPITAL FEDERAL","establecim":"ESC N°4 CNEL MARINA T ESPORA","dne_distri":1,"dne_seccio":1,"cartodb_id":55,"created_at":"2013-08-12T00:10:49Z","updated_at":"2013-08-12T00:11:40Z"},"geometry":{"type":"Point","coordinates":[-58.389405,-34.629324]}},{"type":"Feature","properties":{"id":4691,"mesa_hasta":514,"codigo_dis":"1","mesa_desde":505,"codigo_pos":null,"cant_mesas":"10","direccion":"SAN JOSE 1985","seccion":"1","circuito":"19","localidad":"CAP FED","distrito":"CAPITAL FEDERAL","establecim":"ESC N°6 TOMAS GUIDO","dne_distri":1,"dne_seccio":1,"cartodb_id":56,"created_at":"2013-08-12T00:10:49Z","updated_at":"2013-08-12T00:11:40Z"},"geometry":{"type":"Point","coordinates":[-58.385597,-34.63209]}},{"type":"Feature","properties":{"id":4692,"mesa_hasta":528,"codigo_dis":"1","mesa_desde":525,"codigo_pos":null,"cant_mesas":"4","direccion":"CONSTITUCION 1776","seccion":"1","circuito":"19","localidad":"CAP FED","distrito":"CAPITAL FEDERAL","establecim":"INSTITUTO JOSE MANUEL ESTRADA","dne_distri":1,"dne_seccio":1,"cartodb_id":57,"created_at":"2013-08-12T00:10:49Z","updated_at":"2013-08-12T00:11:40Z"},"geometry":{"type":"Point","coordinates":[-58.390628,-34.625203]}},{"type":"Feature","properties":{"id":4693,"mesa_hasta":532,"codigo_dis":"1","mesa_desde":529,"codigo_pos":null,"cant_mesas":"4","direccion":"AV ENTRE RIOS 1428","seccion":"1","circuito":"19","localidad":"CAP FED","distrito":"CAPITAL FEDERAL","establecim":"INSTITUTO JOSE MANUEL ESTRADA","dne_distri":1,"dne_seccio":1,"cartodb_id":58,"created_at":"2013-08-12T00:10:49Z","updated_at":"2013-08-12T00:11:40Z"},"geometry":{"type":"Point","coordinates":[-58.390842,-34.625331]}},{"type":"Feature","properties":{"id":4694,"mesa_hasta":536,"codigo_dis":"1","mesa_desde":533,"codigo_pos":null,"cant_mesas":"4","direccion":"AV JUAN DE GARAY 1684","seccion":"1","circuito":"19","localidad":"CAP FED","distrito":"CAPITAL FEDERAL","establecim":"INSTITUTO VOCACIONAL DE ARTE","dne_distri":1,"dne_seccio":1,"cartodb_id":59,"created_at":"2013-08-12T00:10:49Z","updated_at":"2013-08-12T00:11:40Z"},"geometry":{"type":"Point","coordinates":[-58.389136,-34.627355]}},{"type":"Feature","properties":{"id":4695,"mesa_hasta":559,"codigo_dis":"1","mesa_desde":537,"codigo_pos":null,"cant_mesas":"23","direccion":"AV FIGUEROA ALCORTA 2263","seccion":"2","circuito":"20","localidad":"CAP FED","distrito":"CAPITAL FEDERAL","establecim":"UBA FAC DE DERECHO Y CS SOCIAL","dne_distri":1,"dne_seccio":2,"cartodb_id":60,"created_at":"2013-08-12T00:10:49Z","updated_at":"2013-08-12T00:11:40Z"},"geometry":{"type":"Point","coordinates":[-58.392095,-34.582787]}},{"type":"Feature","properties":{"id":4696,"mesa_hasta":601,"codigo_dis":"1","mesa_desde":587,"codigo_pos":null,"cant_mesas":"15","direccion":"JUAN EDUARDO COUTURE 2231","seccion":"2","circuito":"21","localidad":"CAPITAL FEDERAL","distrito":"CAPITAL FEDERAL","establecim":"CENTRO DE EXP DE GCBA","dne_distri":1,"dne_seccio":2,"cartodb_id":61,"created_at":"2013-08-12T00:10:49Z","updated_at":"2013-08-12T00:11:40Z"},"geometry":{"type":"Point","coordinates":[-58.389276,-34.582768]}},{"type":"Feature","properties":{"id":4697,"mesa_hasta":583,"codigo_dis":"1","mesa_desde":568,"codigo_pos":null,"cant_mesas":"16","direccion":"AYACUCHO 1680 VICENTE LOPEZ  1920","seccion":"2","circuito":"21","localidad":"CAP FED","distrito":"CAPITAL FEDERAL","establecim":"ESC N°1 JUAN JOSE CASTELLI","dne_distri":1,"dne_seccio":2,"cartodb_id":62,"created_at":"2013-08-12T00:10:49Z","updated_at":"2013-08-12T00:11:40Z"},"geometry":{"type":"Point","coordinates":[-58.392239,-34.590186]}},{"type":"Feature","properties":{"id":4698,"mesa_hasta":567,"codigo_dis":"1","mesa_desde":560,"codigo_pos":null,"cant_mesas":"8","direccion":"AYACUCHO 1849","seccion":"2","circuito":"21","localidad":"CAP FED","distrito":"CAPITAL FEDERAL","establecim":"ESC N°21 ANGEL GALLARDO","dne_distri":1,"dne_seccio":2,"cartodb_id":63,"created_at":"2013-08-12T00:10:49Z","updated_at":"2013-08-12T00:11:40Z"},"geometry":{"type":"Point","coordinates":[-58.390365,-34.588833]}},{"type":"Feature","properties":{"id":4699,"mesa_hasta":586,"codigo_dis":"1","mesa_desde":584,"codigo_pos":null,"cant_mesas":"3","direccion":"VICENTE LOPEZ 1969","seccion":"2","circuito":"21","localidad":"CAP FED","distrito":"CAPITAL FEDERAL","establecim":"INSTITUTO NTRA SRA DEL PILAR","dne_distri":1,"dne_seccio":2,"cartodb_id":64,"created_at":"2013-08-12T00:10:49Z","updated_at":"2013-08-12T00:11:40Z"},"geometry":{"type":"Point","coordinates":[-58.392648,-34.58933]}},{"type":"Feature","properties":{"id":4701,"mesa_hasta":650,"codigo_dis":"1","mesa_desde":648,"codigo_pos":null,"cant_mesas":"3","direccion":"T M DE ANCHORENA 1644","seccion":"2","circuito":"22","localidad":"CAPITAL FEDERAL","distrito":"CAPITAL FEDERAL","establecim":"COLEGIO RIO DE LA PLATA (PRIM)","dne_distri":1,"dne_seccio":2,"cartodb_id":65,"created_at":"2013-08-12T00:10:49Z","updated_at":"2013-08-12T00:11:40Z"},"geometry":{"type":"Point","coordinates":[-58.403612,-34.590773]}},{"type":"Feature","properties":{"id":4702,"mesa_hasta":647,"codigo_dis":"1","mesa_desde":642,"codigo_pos":null,"cant_mesas":"6","direccion":"LAPRIDA 1635","seccion":"2","circuito":"22","localidad":"CAP FED","distrito":"CAPITAL FEDERAL","establecim":"COLEGIO RIO DE LA PLATA (SEC)","dne_distri":1,"dne_seccio":2,"cartodb_id":66,"created_at":"2013-08-12T00:10:49Z","updated_at":"2013-08-12T00:11:40Z"},"geometry":{"type":"Point","coordinates":[-58.403612,-34.590773]}},{"type":"Feature","properties":{"id":4703,"mesa_hasta":616,"codigo_dis":"1","mesa_desde":602,"codigo_pos":null,"cant_mesas":"15","direccion":"AGUERO 2320/AGUERO S/N","seccion":"2","circuito":"22","localidad":"CAP FED","distrito":"CAPITAL FEDERAL","establecim":"COLEGIO SAN AGUSTIN","dne_distri":1,"dne_seccio":2,"cartodb_id":67,"created_at":"2013-08-12T00:10:49Z","updated_at":"2013-08-12T00:11:40Z"},"geometry":{"type":"Point","coordinates":[-58.400021,-34.586259]}},{"type":"Feature","properties":{"id":4704,"mesa_hasta":641,"codigo_dis":"1","mesa_desde":632,"codigo_pos":null,"cant_mesas":"10","direccion":"AV GRAL LAS HERAS 3086","seccion":"2","circuito":"22","localidad":"CAP FED","distrito":"CAPITAL FEDERAL","establecim":"ESC N°18 DR HERRERA VEGAS","dne_distri":1,"dne_seccio":2,"cartodb_id":68,"created_at":"2013-08-12T00:10:49Z","updated_at":"2013-08-12T00:11:40Z"},"geometry":{"type":"Point","coordinates":[-58.405311,-34.583603]}},{"type":"Feature","properties":{"id":4705,"mesa_hasta":627,"codigo_dis":"1","mesa_desde":617,"codigo_pos":null,"cant_mesas":"11","direccion":"CHARCAS 3034","seccion":"2","circuito":"22","localidad":null,"distrito":"CAPITAL FEDERAL","establecim":"INST. VOCACIONAL ARGENTINO","dne_distri":1,"dne_seccio":2,"cartodb_id":69,"created_at":"2013-08-12T00:10:49Z","updated_at":"2013-08-12T00:11:40Z"},"geometry":{"type":"Point","coordinates":[-58.408817,-34.593101]}},{"type":"Feature","properties":{"id":4706,"mesa_hasta":710,"codigo_dis":"1","mesa_desde":705,"codigo_pos":null,"cant_mesas":"6","direccion":"JUNCAL 2623","seccion":"2","circuito":"23","localidad":"CAPITAL FEDERAL","distrito":"CAPITAL FEDERAL","establecim":"COLEGIO SAN TARSICIO","dne_distri":1,"dne_seccio":2,"cartodb_id":70,"created_at":"2013-08-12T00:10:49Z","updated_at":"2013-08-12T00:11:40Z"},"geometry":{"type":"Point","coordinates":[-58.396428,-34.589815]}},{"type":"Feature","properties":{"id":4707,"mesa_hasta":675,"codigo_dis":"1","mesa_desde":663,"codigo_pos":null,"cant_mesas":"13","direccion":"ARENALES 2733","seccion":"2","circuito":"23","localidad":"CAP FED","distrito":"CAPITAL FEDERAL","establecim":"ESC N°10 GREGORIA PEREZ","dne_distri":1,"dne_seccio":2,"cartodb_id":71,"created_at":"2013-08-12T00:10:49Z","updated_at":"2013-08-12T00:11:40Z"},"geometry":{"type":"Point","coordinates":[-58.404402,-34.592193]}},{"type":"Feature","properties":{"id":4708,"mesa_hasta":662,"codigo_dis":"1","mesa_desde":651,"codigo_pos":null,"cant_mesas":"12","direccion":"PEÑA 2670","seccion":"2","circuito":"23","localidad":"CAP FED","distrito":"CAPITAL FEDERAL","establecim":"ESC N°24 CORNELLA PIZARRO","dne_distri":1,"dne_seccio":2,"cartodb_id":72,"created_at":"2013-08-12T00:10:49Z","updated_at":"2013-08-12T00:11:40Z"},"geometry":{"type":"Point","coordinates":[-58.401614,-34.58819]}},{"type":"Feature","properties":{"id":4709,"mesa_hasta":690,"codigo_dis":"1","mesa_desde":687,"codigo_pos":null,"cant_mesas":"4","direccion":"PACHECO DE MELO 2455","seccion":"2","circuito":"23","localidad":null,"distrito":"CAPITAL FEDERAL","establecim":"INST. M BIANCHI DE COPELLO","dne_distri":1,"dne_seccio":2,"cartodb_id":73,"created_at":"2013-08-12T00:10:49Z","updated_at":"2013-08-12T00:11:40Z"},"geometry":{"type":"Point","coordinates":[-58.399228,-34.587958]}},{"type":"Feature","properties":{"id":4710,"mesa_hasta":686,"codigo_dis":"1","mesa_desde":676,"codigo_pos":null,"cant_mesas":"11","direccion":"DR T M DE ANCHORENA 1553","seccion":"2","circuito":"23","localidad":"CAP FED","distrito":"CAPITAL FEDERAL","establecim":"INSTITUTO MERCEDES PACHECO","dne_distri":1,"dne_seccio":2,"cartodb_id":74,"created_at":"2013-08-12T00:10:49Z","updated_at":"2013-08-12T00:11:40Z"},"geometry":{"type":"Point","coordinates":[-58.403628,-34.592166]}},{"type":"Feature","properties":{"id":4711,"mesa_hasta":704,"codigo_dis":"1","mesa_desde":691,"codigo_pos":null,"cant_mesas":"14","direccion":"AV SANTA FE 2778","seccion":"2","circuito":"23","localidad":"CAPITAL FEDERAL","distrito":"CAPITAL FEDERAL","establecim":"LIC NAC N°1 J F ALCORTA","dne_distri":1,"dne_seccio":2,"cartodb_id":75,"created_at":"2013-08-12T00:10:49Z","updated_at":"2013-08-12T00:11:40Z"},"geometry":{"type":"Point","coordinates":[-58.406004,-34.592888]}},{"type":"Feature","properties":{"id":4712,"mesa_hasta":739,"codigo_dis":"1","mesa_desde":729,"codigo_pos":null,"cant_mesas":"11","direccion":"PACHECO DE MELO 2300","seccion":"2","circuito":"24","localidad":"CAP FED","distrito":"CAPITAL FEDERAL","establecim":"COLEGIO SAN PABLO","dne_distri":1,"dne_seccio":2,"cartodb_id":76,"created_at":"2013-08-12T00:10:49Z","updated_at":"2013-08-12T00:11:40Z"},"geometry":{"type":"Point","coordinates":[-58.396897,-34.589425]}},{"type":"Feature","properties":{"id":4713,"mesa_hasta":750,"codigo_dis":"1","mesa_desde":740,"codigo_pos":null,"cant_mesas":"11","direccion":"AZCUENAGA 1630","seccion":"2","circuito":"24","localidad":"CAP FED","distrito":"CAPITAL FEDERAL","establecim":"INST N SRA DE LA MISERICORDIA","dne_distri":1,"dne_seccio":2,"cartodb_id":77,"created_at":"2013-08-12T00:10:49Z","updated_at":"2013-08-12T00:11:40Z"},"geometry":{"type":"Point","coordinates":[-58.397286,-34.590198]}},{"type":"Feature","properties":{"id":4714,"mesa_hasta":728,"codigo_dis":"1","mesa_desde":711,"codigo_pos":null,"cant_mesas":"18","direccion":"AV GRAL LAS HERAS 2214","seccion":"2","circuito":"24","localidad":"CAP FED","distrito":"CAPITAL FEDERAL","establecim":"UBA FACULTAD DE INGENIERIA","dne_distri":1,"dne_seccio":2,"cartodb_id":78,"created_at":"2013-08-12T00:10:49Z","updated_at":"2013-08-12T00:11:40Z"},"geometry":{"type":"Point","coordinates":[-58.396427,-34.58836]}},{"type":"Feature","properties":{"id":4715,"mesa_hasta":767,"codigo_dis":"1","mesa_desde":762,"codigo_pos":null,"cant_mesas":"6","direccion":"ARENALES 2065","seccion":"2","circuito":"25","localidad":"CAP FED","distrito":"CAPITAL FEDERAL","establecim":"COLEGIO LA ANUNCIATA","dne_distri":1,"dne_seccio":2,"cartodb_id":79,"created_at":"2013-08-12T00:10:49Z","updated_at":"2013-08-12T00:11:40Z"},"geometry":{"type":"Point","coordinates":[-58.396694,-34.594416]}},{"type":"Feature","properties":{"id":4716,"mesa_hasta":788,"codigo_dis":"1","mesa_desde":778,"codigo_pos":null,"cant_mesas":"11","direccion":"MARCELO T DE ALVEAR 1851","seccion":"2","circuito":"25","localidad":"CAP FED","distrito":"CAPITAL FEDERAL","establecim":"ESC SUP COM CARLOS PELLEGRINI","dne_distri":1,"dne_seccio":2,"cartodb_id":80,"created_at":"2013-08-12T00:10:49Z","updated_at":"2013-08-12T00:11:40Z"},"geometry":{"type":"Point","coordinates":[-58.394001,-34.597162]}},{"type":"Feature","properties":{"id":4717,"mesa_hasta":773,"codigo_dis":"1","mesa_desde":768,"codigo_pos":null,"cant_mesas":"6","direccion":"RIOBAMBA 1059","seccion":"2","circuito":"25","localidad":"CAP FED","distrito":"CAPITAL FEDERAL","establecim":"ESCUELA ARGENTINA MODELO","dne_distri":1,"dne_seccio":2,"cartodb_id":81,"created_at":"2013-08-12T00:10:49Z","updated_at":"2013-08-12T00:11:40Z"},"geometry":{"type":"Point","coordinates":[-58.394442,-34.595176]}},{"type":"Feature","properties":{"id":4718,"mesa_hasta":777,"codigo_dis":"1","mesa_desde":774,"codigo_pos":null,"cant_mesas":"4","direccion":"JUNCAL 2131","seccion":"2","circuito":"25","localidad":"CAP FED","distrito":"CAPITAL FEDERAL","establecim":"INST PADRE ETCHEVERRY BONEO","dne_distri":1,"dne_seccio":2,"cartodb_id":82,"created_at":"2013-08-12T00:10:49Z","updated_at":"2013-08-12T00:11:40Z"},"geometry":{"type":"Point","coordinates":[-58.397794,-34.592664]}},{"type":"Feature","properties":{"id":4719,"mesa_hasta":761,"codigo_dis":"1","mesa_desde":751,"codigo_pos":null,"cant_mesas":"11","direccion":"LARREA 1254","seccion":"2","circuito":"25","localidad":"CAP FED","distrito":"CAPITAL FEDERAL","establecim":"INSTITUTO SAN MIGUEL","dne_distri":1,"dne_seccio":2,"cartodb_id":83,"created_at":"2013-08-12T00:10:49Z","updated_at":"2013-08-12T00:11:40Z"},"geometry":{"type":"Point","coordinates":[-58.400413,-34.592771]}},{"type":"Feature","properties":{"id":4720,"mesa_hasta":831,"codigo_dis":"1","mesa_desde":815,"codigo_pos":null,"cant_mesas":"17","direccion":"MONTEVIDEO 1046","seccion":"2","circuito":"26","localidad":"CAP FED","distrito":"CAPITAL FEDERAL","establecim":"COLEGIO CHAMPAGNAT","dne_distri":1,"dne_seccio":2,"cartodb_id":84,"created_at":"2013-08-12T00:10:49Z","updated_at":"2013-08-12T00:11:40Z"},"geometry":{"type":"Point","coordinates":[-58.390049,-34.596764]}},{"type":"Feature","properties":{"id":4721,"mesa_hasta":839,"codigo_dis":"1","mesa_desde":832,"codigo_pos":null,"cant_mesas":"8","direccion":"AV CORDOBA 1951","seccion":"2","circuito":"26","localidad":null,"distrito":"CAPITAL FEDERAL","establecim":"ESC N°1 R SAENZ PEÑA","dne_distri":1,"dne_seccio":2,"cartodb_id":85,"created_at":"2013-08-12T00:10:49Z","updated_at":"2013-08-12T00:11:40Z"},"geometry":{"type":"Point","coordinates":[-58.39512,-34.599518]}},{"type":"Feature","properties":{"id":4722,"mesa_hasta":801,"codigo_dis":"1","mesa_desde":789,"codigo_pos":null,"cant_mesas":"13","direccion":"AV SANTA FE 1510","seccion":"2","circuito":"26","localidad":"CAP FED","distrito":"CAPITAL FEDERAL","establecim":"ESC Nº3 ONESIMO LEGUIZAMON","dne_distri":1,"dne_seccio":2,"cartodb_id":86,"created_at":"2013-08-12T00:10:49Z","updated_at":"2013-08-12T00:11:40Z"},"geometry":{"type":"Point","coordinates":[-58.388593,-34.595953]}},{"type":"Feature","properties":{"id":4723,"mesa_hasta":806,"codigo_dis":"1","mesa_desde":802,"codigo_pos":null,"cant_mesas":"5","direccion":"URUGUAY 936","seccion":"2","circuito":"26","localidad":"CAP FED","distrito":"CAPITAL FEDERAL","establecim":"INST INM C DE M ADORATRICES","dne_distri":1,"dne_seccio":2,"cartodb_id":87,"created_at":"2013-08-12T00:10:49Z","updated_at":"2013-08-12T00:11:40Z"},"geometry":{"type":"Point","coordinates":[-58.38727,-34.59822]}},{"type":"Feature","properties":{"id":4724,"mesa_hasta":814,"codigo_dis":"1","mesa_desde":807,"codigo_pos":null,"cant_mesas":"8","direccion":"PARAGUAY 1766","seccion":"2","circuito":"26","localidad":"CAP FED","distrito":"CAPITAL FEDERAL","establecim":"INSTITUTO DEL CARMEN","dne_distri":1,"dne_seccio":2,"cartodb_id":88,"created_at":"2013-08-12T00:10:49Z","updated_at":"2013-08-12T00:11:40Z"},"geometry":{"type":"Point","coordinates":[-58.392537,-34.598768]}},{"type":"Feature","properties":{"id":4725,"mesa_hasta":873,"codigo_dis":"1","mesa_desde":864,"codigo_pos":null,"cant_mesas":"10","direccion":"AYACUCHO 953","seccion":"2","circuito":"27","localidad":"CAP FED","distrito":"CAPITAL FEDERAL","establecim":"ESC N°1 DE RECUPERACION","dne_distri":1,"dne_seccio":2,"cartodb_id":89,"created_at":"2013-08-12T00:10:49Z","updated_at":"2013-08-12T00:11:40Z"},"geometry":{"type":"Point","coordinates":[-58.395841,-34.597994]}},{"type":"Feature","properties":{"id":4726,"mesa_hasta":863,"codigo_dis":"1","mesa_desde":840,"codigo_pos":null,"cant_mesas":"24","direccion":"PARAGUAY 1950","seccion":"2","circuito":"27","localidad":"CAP FED","distrito":"CAPITAL FEDERAL","establecim":"ESC N°1 R SAENZ PEÑA","dne_distri":1,"dne_seccio":2,"cartodb_id":90,"created_at":"2013-08-12T00:10:49Z","updated_at":"2013-08-12T00:11:40Z"},"geometry":{"type":"Point","coordinates":[-58.39512,-34.599518]}},{"type":"Feature","properties":{"id":4727,"mesa_hasta":878,"codigo_dis":"1","mesa_desde":874,"codigo_pos":null,"cant_mesas":"5","direccion":"AV CORDOBA 1951","seccion":"2","circuito":"27","localidad":null,"distrito":"CAPITAL FEDERAL","establecim":"ESC N°1 R SAENZ PEÑA","dne_distri":1,"dne_seccio":2,"cartodb_id":91,"created_at":"2013-08-12T00:10:49Z","updated_at":"2013-08-12T00:11:40Z"},"geometry":{"type":"Point","coordinates":[-58.39512,-34.599518]}},{"type":"Feature","properties":{"id":4728,"mesa_hasta":898,"codigo_dis":"1","mesa_desde":896,"codigo_pos":null,"cant_mesas":"3","direccion":"GALLO 1341","seccion":"2","circuito":"28","localidad":"CAP FED","distrito":"CAPITAL FEDERAL","establecim":"COLEGIO ALETHEIA","dne_distri":1,"dne_seccio":2,"cartodb_id":92,"created_at":"2013-08-12T00:10:49Z","updated_at":"2013-08-12T00:11:40Z"},"geometry":{"type":"Point","coordinates":[-58.41055,-34.594653]}},{"type":"Feature","properties":{"id":4729,"mesa_hasta":895,"codigo_dis":"1","mesa_desde":879,"codigo_pos":null,"cant_mesas":"17","direccion":"LAPRIDA 1235","seccion":"2","circuito":"28","localidad":"CAP FED","distrito":"CAPITAL FEDERAL","establecim":"ESC N°2 JUAN LARREA","dne_distri":1,"dne_seccio":2,"cartodb_id":93,"created_at":"2013-08-12T00:10:49Z","updated_at":"2013-08-12T00:11:40Z"},"geometry":{"type":"Point","coordinates":[-58.407507,-34.594547]}},{"type":"Feature","properties":{"id":4730,"mesa_hasta":908,"codigo_dis":"1","mesa_desde":899,"codigo_pos":null,"cant_mesas":"10","direccion":"LARREA 854","seccion":"2","circuito":"28","localidad":"CAP FED","distrito":"CAPITAL FEDERAL","establecim":"ESC N°23 BERNARDINO RIVADAVIA","dne_distri":1,"dne_seccio":2,"cartodb_id":94,"created_at":"2013-08-12T00:10:49Z","updated_at":"2013-08-12T00:11:40Z"},"geometry":{"type":"Point","coordinates":[-58.402425,-34.598358]}},{"type":"Feature","properties":{"id":4731,"mesa_hasta":919,"codigo_dis":"1","mesa_desde":909,"codigo_pos":null,"cant_mesas":"11","direccion":"ECUADOR 1158","seccion":"2","circuito":"28","localidad":"CAPITAL FEDERAL","distrito":"CAPITAL FEDERAL","establecim":"ESC. N°6 MANUEL BELGRANO","dne_distri":1,"dne_seccio":2,"cartodb_id":95,"created_at":"2013-08-12T00:10:49Z","updated_at":"2013-08-12T00:11:40Z"},"geometry":{"type":"Point","coordinates":[-58.404955,-34.596539]}},{"type":"Feature","properties":{"id":4732,"mesa_hasta":932,"codigo_dis":"1","mesa_desde":920,"codigo_pos":null,"cant_mesas":"13","direccion":"DR. N QUIRNO COSTA 1260","seccion":"2","circuito":"28","localidad":"CAPITAL FEDERAL","distrito":"CAPITAL FEDERAL","establecim":"INST EDMUNDO DE AMICIS","dne_distri":1,"dne_seccio":2,"cartodb_id":96,"created_at":"2013-08-12T00:10:49Z","updated_at":"2013-08-12T00:11:40Z"},"geometry":{"type":"Point","coordinates":[-58.405487,-34.59523]}},{"type":"Feature","properties":{"id":4733,"mesa_hasta":958,"codigo_dis":"1","mesa_desde":956,"codigo_pos":null,"cant_mesas":"3","direccion":"BILLINGHURST 1926","seccion":"2","circuito":"29","localidad":"CAPITAL FEDERAL","distrito":"CAPITAL FEDERAL","establecim":"ALIANZA FRANCESA C. FORTABAT","dne_distri":1,"dne_seccio":2,"cartodb_id":97,"created_at":"2013-08-12T00:10:49Z","updated_at":"2013-08-12T00:11:40Z"},"geometry":{"type":"Point","coordinates":[-58.408604,-34.588633]}},{"type":"Feature","properties":{"id":4734,"mesa_hasta":968,"codigo_dis":"1","mesa_desde":959,"codigo_pos":null,"cant_mesas":"10","direccion":"GALLO 1341","seccion":"2","circuito":"29","localidad":"CAPITAL FEDERAL","distrito":"CAPITAL FEDERAL","establecim":"COLEGIO ALETHEIA","dne_distri":1,"dne_seccio":2,"cartodb_id":98,"created_at":"2013-08-12T00:10:49Z","updated_at":"2013-08-12T00:11:40Z"},"geometry":{"type":"Point","coordinates":[-58.41055,-34.594653]}},{"type":"Feature","properties":{"id":4735,"mesa_hasta":944,"codigo_dis":"1","mesa_desde":933,"codigo_pos":null,"cant_mesas":"12","direccion":"JOSE A CABRERA 3484","seccion":"2","circuito":"29","localidad":"CAP FED","distrito":"CAPITAL FEDERAL","establecim":"ESC N°13 REP DE IRAN","dne_distri":1,"dne_seccio":2,"cartodb_id":99,"created_at":"2013-08-12T00:10:49Z","updated_at":"2013-08-12T00:11:40Z"},"geometry":{"type":"Point","coordinates":[-58.414704,-34.596803]}},{"type":"Feature","properties":{"id":4736,"mesa_hasta":955,"codigo_dis":"1","mesa_desde":945,"codigo_pos":null,"cant_mesas":"11","direccion":"GUISE 1979","seccion":"2","circuito":"29","localidad":"CAPITAL FEDERAL","distrito":"CAPITAL FEDERAL","establecim":"INST CORAZON DE MARIA","dne_distri":1,"dne_seccio":2,"cartodb_id":100,"created_at":"2013-08-12T00:10:49Z","updated_at":"2013-08-12T00:11:40Z"},"geometry":{"type":"Point","coordinates":[-58.412174,-34.5902]}},{"type":"Feature","properties":{"id":4737,"mesa_hasta":993,"codigo_dis":"1","mesa_desde":985,"codigo_pos":null,"cant_mesas":"9","direccion":"DR T M DE ANCHORENA 855","seccion":"3","circuito":"30","localidad":"BALVANERA","distrito":"CAPITAL FEDERAL","establecim":"ESC N°23 TOMAS DE ANCHORENA","dne_distri":1,"dne_seccio":3,"cartodb_id":101,"created_at":"2013-08-12T00:10:49Z","updated_at":"2013-08-12T00:11:40Z"},"geometry":{"type":"Point","coordinates":[-58.408235,-34.59882]}},{"type":"Feature","properties":{"id":4738,"mesa_hasta":1002,"codigo_dis":"1","mesa_desde":994,"codigo_pos":null,"cant_mesas":"9","direccion":"JEAN JAURES 870","seccion":"3","circuito":"30","localidad":"BALVANERA","distrito":"CAPITAL FEDERAL","establecim":"ESC N°24 PCIA DE CATAMARCA","dne_distri":1,"dne_seccio":3,"cartodb_id":102,"created_at":"2013-08-12T00:10:49Z","updated_at":"2013-08-12T00:11:40Z"},"geometry":{"type":"Point","coordinates":[-58.407623,-34.600281]}},{"type":"Feature","properties":{"id":4739,"mesa_hasta":984,"codigo_dis":"1","mesa_desde":969,"codigo_pos":null,"cant_mesas":"16","direccion":"TUCUMAN 3233/SAN LUIS 3227","seccion":"3","circuito":"30","localidad":"CAP FED","distrito":"CAPITAL FEDERAL","establecim":"ESC N°8 DR ARTURO MATEO BAS","dne_distri":1,"dne_seccio":3,"cartodb_id":103,"created_at":"2013-08-12T00:10:49Z","updated_at":"2013-08-12T00:11:40Z"},"geometry":{"type":"Point","coordinates":[-58.411308,-34.600327]}},{"type":"Feature","properties":{"id":4740,"mesa_hasta":1033,"codigo_dis":"1","mesa_desde":1019,"codigo_pos":null,"cant_mesas":"15","direccion":"LAVALLE 2366","seccion":"3","circuito":"31","localidad":"BALVANERA","distrito":"CAPITAL FEDERAL","establecim":"ESC N°10 PRESIDENTE QUINTANA","dne_distri":1,"dne_seccio":3,"cartodb_id":104,"created_at":"2013-08-12T00:10:49Z","updated_at":"2013-08-12T00:11:40Z"},"geometry":{"type":"Point","coordinates":[-58.400383,-34.603568]}},{"type":"Feature","properties":{"id":4741,"mesa_hasta":1041,"codigo_dis":"1","mesa_desde":1034,"codigo_pos":null,"cant_mesas":"8","direccion":"AV.PUEYRREDON 630","seccion":"3","circuito":"31","localidad":"CAP FED","distrito":"CAPITAL FEDERAL","establecim":"ESC Nº14 JUAN M PUEYRREDON","dne_distri":1,"dne_seccio":3,"cartodb_id":105,"created_at":"2013-08-12T00:10:49Z","updated_at":"2013-08-12T00:11:40Z"},"geometry":{"type":"Point","coordinates":[-58.405267,-34.602795]}},{"type":"Feature","properties":{"id":4742,"mesa_hasta":1018,"codigo_dis":"1","mesa_desde":1003,"codigo_pos":null,"cant_mesas":"16","direccion":"AV CORDOBA 2150","seccion":"3","circuito":"31","localidad":"BALVANERA","distrito":"CAPITAL FEDERAL","establecim":"UBA FACULTAD DE CS ECONOMICAS","dne_distri":1,"dne_seccio":3,"cartodb_id":106,"created_at":"2013-08-12T00:10:49Z","updated_at":"2013-08-12T00:11:40Z"},"geometry":{"type":"Point","coordinates":[-58.39779,-34.600221]}},{"type":"Feature","properties":{"id":4743,"mesa_hasta":1061,"codigo_dis":"1","mesa_desde":1055,"codigo_pos":null,"cant_mesas":"7","direccion":"RIOBAMBA 696","seccion":"3","circuito":"32","localidad":"CAP FED","distrito":"CAPITAL FEDERAL","establecim":"COLEGIO DE LASALLE","dne_distri":1,"dne_seccio":3,"cartodb_id":107,"created_at":"2013-08-12T00:10:49Z","updated_at":"2013-08-12T00:11:40Z"},"geometry":{"type":"Point","coordinates":[-58.394276,-34.601277]}},{"type":"Feature","properties":{"id":4744,"mesa_hasta":1054,"codigo_dis":"1","mesa_desde":1051,"codigo_pos":null,"cant_mesas":"4","direccion":"TTE GRAL J D PERON 1862","seccion":"3","circuito":"32","localidad":"CAP FED","distrito":"CAPITAL FEDERAL","establecim":"COLEGIO SANTO TOMAS DE AQUINO","dne_distri":1,"dne_seccio":3,"cartodb_id":108,"created_at":"2013-08-12T00:10:49Z","updated_at":"2013-08-12T00:11:40Z"},"geometry":{"type":"Point","coordinates":[-58.392989,-34.606962]}},{"type":"Feature","properties":{"id":4745,"mesa_hasta":1050,"codigo_dis":"1","mesa_desde":1042,"codigo_pos":null,"cant_mesas":"9","direccion":"RIOBAMBA 623","seccion":"3","circuito":"32","localidad":"CAP FED","distrito":"CAPITAL FEDERAL","establecim":"ESC Nº2 ANTONIO BERMEJO","dne_distri":1,"dne_seccio":3,"cartodb_id":109,"created_at":"2013-08-12T00:10:49Z","updated_at":"2013-08-12T00:11:40Z"},"geometry":{"type":"Point","coordinates":[-58.392835,-34.601652]}},{"type":"Feature","properties":{"id":4746,"mesa_hasta":1065,"codigo_dis":"1","mesa_desde":1062,"codigo_pos":null,"cant_mesas":"4","direccion":"LAVALLE 1838","seccion":"3","circuito":"32","localidad":"CAP FED","distrito":"CAPITAL FEDERAL","establecim":"INSTITUTO UNIVERSITAS","dne_distri":1,"dne_seccio":3,"cartodb_id":110,"created_at":"2013-08-12T00:10:49Z","updated_at":"2013-08-12T00:11:40Z"},"geometry":{"type":"Point","coordinates":[-58.393073,-34.603266]}},{"type":"Feature","properties":{"id":4747,"mesa_hasta":1076,"codigo_dis":"1","mesa_desde":1066,"codigo_pos":null,"cant_mesas":"11","direccion":"LAVALLE 1878","seccion":"3","circuito":"32","localidad":"CAP FED","distrito":"CAPITAL FEDERAL","establecim":"UNIV DEL SALVADOR FILOSOFIA","dne_distri":1,"dne_seccio":3,"cartodb_id":111,"created_at":"2013-08-12T00:10:49Z","updated_at":"2013-08-12T00:11:40Z"},"geometry":{"type":"Point","coordinates":[-58.393916,-34.603015]}},{"type":"Feature","properties":{"id":4748,"mesa_hasta":1084,"codigo_dis":"1","mesa_desde":1077,"codigo_pos":null,"cant_mesas":"8","direccion":"VALENTIN GOMEZ 3163","seccion":"3","circuito":"33","localidad":"CAP FED","distrito":"CAPITAL FEDERAL","establecim":"COLEGIO Nº5 BARTOLOME MITRE","dne_distri":1,"dne_seccio":3,"cartodb_id":112,"created_at":"2013-08-12T00:10:49Z","updated_at":"2013-08-12T00:11:40Z"},"geometry":{"type":"Point","coordinates":[-58.410139,-34.605041]}},{"type":"Feature","properties":{"id":4749,"mesa_hasta":1097,"codigo_dis":"1","mesa_desde":1085,"codigo_pos":null,"cant_mesas":"13","direccion":"SARMIENTO 2832","seccion":"3","circuito":"33","localidad":"CAP FED","distrito":"CAPITAL FEDERAL","establecim":"ESC Nº16 PRESIDENTE MITRE","dne_distri":1,"dne_seccio":3,"cartodb_id":113,"created_at":"2013-08-12T00:10:49Z","updated_at":"2013-08-12T00:11:40Z"},"geometry":{"type":"Point","coordinates":[-58.406333,-34.606716]}},{"type":"Feature","properties":{"id":4750,"mesa_hasta":1106,"codigo_dis":"1","mesa_desde":1098,"codigo_pos":null,"cant_mesas":"9","direccion":"DR T M DE ANCHORENA 441","seccion":"3","circuito":"33","localidad":"CAP FED","distrito":"CAPITAL FEDERAL","establecim":"ESC Nº6 GRAL M RODRIGUEZ","dne_distri":1,"dne_seccio":3,"cartodb_id":114,"created_at":"2013-08-12T00:10:49Z","updated_at":"2013-08-12T00:11:40Z"},"geometry":{"type":"Point","coordinates":[-58.410466,-34.604699]}},{"type":"Feature","properties":{"id":4751,"mesa_hasta":1129,"codigo_dis":"1","mesa_desde":1114,"codigo_pos":null,"cant_mesas":"16","direccion":"TTE GRAL J D PERON 2169","seccion":"3","circuito":"34","localidad":"CAP FED","distrito":"CAPITAL FEDERAL","establecim":"ESC CANGALLO SCHULE","dne_distri":1,"dne_seccio":3,"cartodb_id":115,"created_at":"2013-08-12T00:10:49Z","updated_at":"2013-08-12T00:11:40Z"},"geometry":{"type":"Point","coordinates":[-58.397437,-34.607113]}},{"type":"Feature","properties":{"id":4752,"mesa_hasta":1150,"codigo_dis":"1","mesa_desde":1139,"codigo_pos":null,"cant_mesas":"12","direccion":"SARMIENTO 2250","seccion":"3","circuito":"34","localidad":"CAP FED","distrito":"CAPITAL FEDERAL","establecim":"ESC Nº14 CORNELIO SAAVEDRA","dne_distri":1,"dne_seccio":3,"cartodb_id":116,"created_at":"2013-08-12T00:10:49Z","updated_at":"2013-08-12T00:11:40Z"},"geometry":{"type":"Point","coordinates":[-58.398637,-34.606154]}},{"type":"Feature","properties":{"id":4753,"mesa_hasta":1113,"codigo_dis":"1","mesa_desde":1107,"codigo_pos":null,"cant_mesas":"7","direccion":"PASO 51","seccion":"3","circuito":"34","localidad":"CAP FED","distrito":"CAPITAL FEDERAL","establecim":"INST ARG GALLEGO SGO APOSTOL","dne_distri":1,"dne_seccio":3,"cartodb_id":117,"created_at":"2013-08-12T00:10:49Z","updated_at":"2013-08-12T00:11:40Z"},"geometry":{"type":"Point","coordinates":[-58.403241,-34.609261]}},{"type":"Feature","properties":{"id":4754,"mesa_hasta":1138,"codigo_dis":"1","mesa_desde":1130,"codigo_pos":null,"cant_mesas":"9","direccion":"JUNIN 224","seccion":"3","circuito":"34","localidad":"CAP FED","distrito":"CAPITAL FEDERAL","establecim":"UBA CENTRO DE IDIOMAS","dne_distri":1,"dne_seccio":3,"cartodb_id":118,"created_at":"2013-08-12T00:10:49Z","updated_at":"2013-08-12T00:11:40Z"},"geometry":{"type":"Point","coordinates":[-58.396619,-34.606806]}},{"type":"Feature","properties":{"id":4755,"mesa_hasta":1188,"codigo_dis":"1","mesa_desde":1177,"codigo_pos":null,"cant_mesas":"12","direccion":"GRAL URQUIZA 277","seccion":"3","circuito":"35","localidad":"CAP FED","distrito":"CAPITAL FEDERAL","establecim":"ESC Nº2 M ACOSTA","dne_distri":1,"dne_seccio":3,"cartodb_id":119,"created_at":"2013-08-12T00:10:49Z","updated_at":"2013-08-12T00:11:40Z"},"geometry":{"type":"Point","coordinates":[-58.410047,-34.613704]}},{"type":"Feature","properties":{"id":4756,"mesa_hasta":1176,"codigo_dis":"1","mesa_desde":1163,"codigo_pos":null,"cant_mesas":"14","direccion":"DR T M DE ANCHORENA 41","seccion":"3","circuito":"35","localidad":"CAP FED","distrito":"CAPITAL FEDERAL","establecim":"INSTITUTO ARCANGEL SAN MIGUEL","dne_distri":1,"dne_seccio":3,"cartodb_id":120,"created_at":"2013-08-12T00:10:49Z","updated_at":"2013-08-12T00:11:40Z"},"geometry":{"type":"Point","coordinates":[-58.411618,-34.609947]}},{"type":"Feature","properties":{"id":4757,"mesa_hasta":1162,"codigo_dis":"1","mesa_desde":1151,"codigo_pos":null,"cant_mesas":"12","direccion":"HIPOLITO YRIGOYEN 3242","seccion":"3","circuito":"35","localidad":"CAP FED","distrito":"CAPITAL FEDERAL","establecim":"UBA FACULTAD DE PSICOLOGIA","dne_distri":1,"dne_seccio":3,"cartodb_id":121,"created_at":"2013-08-12T00:10:49Z","updated_at":"2013-08-12T00:11:40Z"},"geometry":{"type":"Point","coordinates":[-58.41237,-34.612253]}},{"type":"Feature","properties":{"id":4758,"mesa_hasta":1213,"codigo_dis":"1","mesa_desde":1202,"codigo_pos":null,"cant_mesas":"12","direccion":"AGRELO 3231","seccion":"3","circuito":"36","localidad":"CAP FED","distrito":"CAPITAL FEDERAL","establecim":"ESC Nº12 REP DEL PARAGUAY","dne_distri":1,"dne_seccio":3,"cartodb_id":122,"created_at":"2013-08-12T00:10:49Z","updated_at":"2013-08-12T00:11:40Z"},"geometry":{"type":"Point","coordinates":[-58.411549,-34.617806]}},{"type":"Feature","properties":{"id":4759,"mesa_hasta":1201,"codigo_dis":"1","mesa_desde":1189,"codigo_pos":null,"cant_mesas":"13","direccion":"CATAMARCA 462","seccion":"3","circuito":"36","localidad":"CAP FED","distrito":"CAPITAL FEDERAL","establecim":"ESC Nº5 PAUL GROUSSAC","dne_distri":1,"dne_seccio":3,"cartodb_id":123,"created_at":"2013-08-12T00:10:49Z","updated_at":"2013-08-12T00:11:40Z"},"geometry":{"type":"Point","coordinates":[-58.405848,-34.61537]}},{"type":"Feature","properties":{"id":4760,"mesa_hasta":1239,"codigo_dis":"1","mesa_desde":1233,"codigo_pos":null,"cant_mesas":"7","direccion":"AV BELGRANO 2584","seccion":"3","circuito":"37","localidad":"CAP FED","distrito":"CAPITAL FEDERAL","establecim":"CIRC DE SUBOFICIALES DE LA PFA","dne_distri":1,"dne_seccio":3,"cartodb_id":124,"created_at":"2013-08-12T00:10:49Z","updated_at":"2013-08-12T00:11:40Z"},"geometry":{"type":"Point","coordinates":[-58.402805,-34.614591]}},{"type":"Feature","properties":{"id":4761,"mesa_hasta":1232,"codigo_dis":"1","mesa_desde":1225,"codigo_pos":null,"cant_mesas":"8","direccion":"AV JUJUY 780","seccion":"3","circuito":"37","localidad":"CAP FED","distrito":"CAPITAL FEDERAL","establecim":"ENET N°25 FRAY LUIS BELTRAN","dne_distri":1,"dne_seccio":3,"cartodb_id":125,"created_at":"2013-08-12T00:10:49Z","updated_at":"2013-08-12T00:11:40Z"},"geometry":{"type":"Point","coordinates":[-58.403425,-34.61846]}},{"type":"Feature","properties":{"id":4762,"mesa_hasta":1224,"codigo_dis":"1","mesa_desde":1214,"codigo_pos":null,"cant_mesas":"11","direccion":"SAAVEDRA 695","seccion":"3","circuito":"37","localidad":"CAP FED","distrito":"CAPITAL FEDERAL","establecim":"ESC N°6 GUILLERMO CORREA","dne_distri":1,"dne_seccio":3,"cartodb_id":126,"created_at":"2013-08-12T00:10:49Z","updated_at":"2013-08-12T00:11:40Z"},"geometry":{"type":"Point","coordinates":[-58.402652,-34.617613]}},{"type":"Feature","properties":{"id":4763,"mesa_hasta":1246,"codigo_dis":"1","mesa_desde":1243,"codigo_pos":null,"cant_mesas":"4","direccion":"ADOLFO ALSINA 2499","seccion":"3","circuito":"37","localidad":"CAP FED","distrito":"CAPITAL FEDERAL","establecim":"ESC Nº1 ESTEBAN DE LUCA","dne_distri":1,"dne_seccio":3,"cartodb_id":127,"created_at":"2013-08-12T00:10:49Z","updated_at":"2013-08-12T00:11:40Z"},"geometry":{"type":"Point","coordinates":[-58.401434,-34.612077]}},{"type":"Feature","properties":{"id":4764,"mesa_hasta":1242,"codigo_dis":"1","mesa_desde":1240,"codigo_pos":null,"cant_mesas":"3","direccion":"AV JUJUY 150","seccion":"3","circuito":"37","localidad":"CAP FED","distrito":"CAPITAL FEDERAL","establecim":"LICEO Nº10 RICARDO ROJAS","dne_distri":1,"dne_seccio":3,"cartodb_id":128,"created_at":"2013-08-12T00:10:49Z","updated_at":"2013-08-12T00:11:40Z"},"geometry":{"type":"Point","coordinates":[-58.405523,-34.611836]}},{"type":"Feature","properties":{"id":4765,"mesa_hasta":1277,"codigo_dis":"1","mesa_desde":1267,"codigo_pos":null,"cant_mesas":"11","direccion":"BARTOLOME MITRE 2455","seccion":"3","circuito":"38","localidad":"CAP FED","distrito":"CAPITAL FEDERAL","establecim":"COLEGIO SAN JOSE","dne_distri":1,"dne_seccio":3,"cartodb_id":129,"created_at":"2013-08-12T00:10:49Z","updated_at":"2013-08-12T00:11:40Z"},"geometry":{"type":"Point","coordinates":[-58.400734,-34.607863]}},{"type":"Feature","properties":{"id":4766,"mesa_hasta":1257,"codigo_dis":"1","mesa_desde":1247,"codigo_pos":null,"cant_mesas":"11","direccion":"MEXICO 2383","seccion":"3","circuito":"38","localidad":"CAP FED","distrito":"CAPITAL FEDERAL","establecim":"ESC N°15 NARCISO DE LAPRIDA","dne_distri":1,"dne_seccio":3,"cartodb_id":130,"created_at":"2013-08-12T00:10:49Z","updated_at":"2013-08-12T00:11:40Z"},"geometry":{"type":"Point","coordinates":[-58.400014,-34.616223]}},{"type":"Feature","properties":{"id":4767,"mesa_hasta":1266,"codigo_dis":"1","mesa_desde":1258,"codigo_pos":null,"cant_mesas":"9","direccion":"MORENO 2104","seccion":"3","circuito":"38","localidad":"CAP FED","distrito":"CAPITAL FEDERAL","establecim":"ESC N°9 MARIANO MORENO","dne_distri":1,"dne_seccio":3,"cartodb_id":131,"created_at":"2013-08-12T00:10:49Z","updated_at":"2013-08-12T00:11:40Z"},"geometry":{"type":"Point","coordinates":[-58.396298,-34.613139]}},{"type":"Feature","properties":{"id":4768,"mesa_hasta":1284,"codigo_dis":"1","mesa_desde":1278,"codigo_pos":null,"cant_mesas":"7","direccion":"MORENO 2135","seccion":"3","circuito":"38","localidad":"CAP FED","distrito":"CAPITAL FEDERAL","establecim":"ESC Nº34 MONSEÑOR DE ANDREA","dne_distri":1,"dne_seccio":3,"cartodb_id":132,"created_at":"2013-08-12T00:10:49Z","updated_at":"2013-08-12T00:11:40Z"},"geometry":{"type":"Point","coordinates":[-58.396571,-34.612859]}},{"type":"Feature","properties":{"id":4769,"mesa_hasta":1305,"codigo_dis":"1","mesa_desde":1297,"codigo_pos":null,"cant_mesas":"9","direccion":"CHILE 2032","seccion":"3","circuito":"39","localidad":"CAP FED","distrito":"CAPITAL FEDERAL","establecim":"COL EUSKAL ECHEA","dne_distri":1,"dne_seccio":3,"cartodb_id":133,"created_at":"2013-08-12T00:10:49Z","updated_at":"2013-08-12T00:11:40Z"},"geometry":{"type":"Point","coordinates":[-58.399147,-34.617533]}},{"type":"Feature","properties":{"id":4770,"mesa_hasta":1296,"codigo_dis":"1","mesa_desde":1293,"codigo_pos":null,"cant_mesas":"4","direccion":"MORENO 1859","seccion":"3","circuito":"39","localidad":"CAP FED","distrito":"CAPITAL FEDERAL","establecim":"COL ISABEL CONDE DE HERNANDEZ","dne_distri":1,"dne_seccio":3,"cartodb_id":134,"created_at":"2013-08-12T00:10:49Z","updated_at":"2013-08-12T00:11:40Z"},"geometry":{"type":"Point","coordinates":[-58.392657,-34.612641]}},{"type":"Feature","properties":{"id":4771,"mesa_hasta":1292,"codigo_dis":"1","mesa_desde":1285,"codigo_pos":null,"cant_mesas":"8","direccion":"AV ENTRE RIOS 757","seccion":"3","circuito":"39","localidad":"CAP FED","distrito":"CAPITAL FEDERAL","establecim":"ESC DE COM N°5 J DE SAN MARTIN","dne_distri":1,"dne_seccio":3,"cartodb_id":135,"created_at":"2013-08-12T00:10:49Z","updated_at":"2013-08-12T00:11:40Z"},"geometry":{"type":"Point","coordinates":[-58.391902,-34.617497]}},{"type":"Feature","properties":{"id":4772,"mesa_hasta":1310,"codigo_dis":"1","mesa_desde":1306,"codigo_pos":null,"cant_mesas":"5","direccion":"HIPOLITO YRIGOYEN 2084","seccion":"3","circuito":"39","localidad":"CAP FED","distrito":"CAPITAL FEDERAL","establecim":"INSTITUTO DON ORIONE","dne_distri":1,"dne_seccio":3,"cartodb_id":136,"created_at":"2013-08-12T00:10:49Z","updated_at":"2013-08-12T00:11:40Z"},"geometry":{"type":"Point","coordinates":[-58.395939,-34.610684]}},{"type":"Feature","properties":{"id":4773,"mesa_hasta":1315,"codigo_dis":"1","mesa_desde":1311,"codigo_pos":null,"cant_mesas":"5","direccion":"COMBATE DE LOS POZOS 146","seccion":"3","circuito":"39","localidad":"CAP FED","distrito":"CAPITAL FEDERAL","establecim":"INSTITUTO SUP DE VIAJANTES","dne_distri":1,"dne_seccio":3,"cartodb_id":137,"created_at":"2013-08-12T00:10:49Z","updated_at":"2013-08-12T00:11:40Z"},"geometry":{"type":"Point","coordinates":[-58.393211,-34.610885]}},{"type":"Feature","properties":{"id":4774,"mesa_hasta":1325,"codigo_dis":"1","mesa_desde":1316,"codigo_pos":null,"cant_mesas":"10","direccion":"TTE GRAL J D PERON 1955","seccion":"3","circuito":"39","localidad":"CAP FED","distrito":"CAPITAL FEDERAL","establecim":"POLIDEPORTIVO CANGALLO SCHULE","dne_distri":1,"dne_seccio":3,"cartodb_id":138,"created_at":"2013-08-12T00:10:49Z","updated_at":"2013-08-12T00:11:40Z"},"geometry":{"type":"Point","coordinates":[-58.394281,-34.606932]}},{"type":"Feature","properties":{"id":4775,"mesa_hasta":1351,"codigo_dis":"1","mesa_desde":1338,"codigo_pos":null,"cant_mesas":"14","direccion":"24 DE NOVIEMBRE 950","seccion":"3","circuito":"40","localidad":"CAP FED","distrito":"CAPITAL FEDERAL","establecim":"COLEGIO SANTA CRUZ","dne_distri":1,"dne_seccio":3,"cartodb_id":139,"created_at":"2013-08-12T00:10:49Z","updated_at":"2013-08-12T00:11:40Z"},"geometry":{"type":"Point","coordinates":[-58.410569,-34.621786]}},{"type":"Feature","properties":{"id":4776,"mesa_hasta":1337,"codigo_dis":"1","mesa_desde":1326,"codigo_pos":null,"cant_mesas":"12","direccion":"HUMBERTO I 3171","seccion":"3","circuito":"40","localidad":"CAP FED","distrito":"CAPITAL FEDERAL","establecim":"ESC N°11 JOSE FEDERICO MORENO","dne_distri":1,"dne_seccio":3,"cartodb_id":140,"created_at":"2013-08-12T00:10:49Z","updated_at":"2013-08-12T00:11:40Z"},"geometry":{"type":"Point","coordinates":[-58.410085,-34.623556]}},{"type":"Feature","properties":{"id":4777,"mesa_hasta":1399,"codigo_dis":"1","mesa_desde":1384,"codigo_pos":null,"cant_mesas":"16","direccion":"COCHABAMBA 2830","seccion":"3","circuito":"41","localidad":"CAP FED","distrito":"CAPITAL FEDERAL","establecim":"ENET N°11 MANUEL BELGRANO","dne_distri":1,"dne_seccio":3,"cartodb_id":141,"created_at":"2013-08-12T00:10:49Z","updated_at":"2013-08-12T00:11:40Z"},"geometry":{"type":"Point","coordinates":[-58.404576,-34.625789]}},{"type":"Feature","properties":{"id":4778,"mesa_hasta":1403,"codigo_dis":"1","mesa_desde":1400,"codigo_pos":null,"cant_mesas":"4","direccion":"AV JUJUY 1471","seccion":"3","circuito":"41","localidad":"CAP FED","distrito":"CAPITAL FEDERAL","establecim":"ESC N°10 F DE GURRUCHAGA","dne_distri":1,"dne_seccio":3,"cartodb_id":142,"created_at":"2013-08-12T00:10:49Z","updated_at":"2013-08-12T00:11:40Z"},"geometry":{"type":"Point","coordinates":[-58.401631,-34.626987]}},{"type":"Feature","properties":{"id":4779,"mesa_hasta":1360,"codigo_dis":"1","mesa_desde":1352,"codigo_pos":null,"cant_mesas":"9","direccion":"LA RIOJA 850","seccion":"3","circuito":"41","localidad":"CAP FED","distrito":"CAPITAL FEDERAL","establecim":"ESC N°3 RUFINO SANCHEZ","dne_distri":1,"dne_seccio":3,"cartodb_id":143,"created_at":"2013-08-12T00:10:49Z","updated_at":"2013-08-12T00:11:40Z"},"geometry":{"type":"Point","coordinates":[-58.407546,-34.620274]}},{"type":"Feature","properties":{"id":4780,"mesa_hasta":1376,"codigo_dis":"1","mesa_desde":1369,"codigo_pos":null,"cant_mesas":"8","direccion":"CARLOS CALVO 2827","seccion":"3","circuito":"41","localidad":"CAP FED","distrito":"CAPITAL FEDERAL","establecim":"ESC Nº17 LUIS CHORROARIN","dne_distri":1,"dne_seccio":3,"cartodb_id":144,"created_at":"2013-08-12T00:10:49Z","updated_at":"2013-08-12T00:11:40Z"},"geometry":{"type":"Point","coordinates":[-58.404928,-34.621454]}},{"type":"Feature","properties":{"id":4781,"mesa_hasta":1368,"codigo_dis":"1","mesa_desde":1361,"codigo_pos":null,"cant_mesas":"8","direccion":"LA RIOJA 1042","seccion":"3","circuito":"41","localidad":"CAP FED","distrito":"CAPITAL FEDERAL","establecim":"ESC NORM SUP N°8 PTE J A ROCA","dne_distri":1,"dne_seccio":3,"cartodb_id":145,"created_at":"2013-08-12T00:10:49Z","updated_at":"2013-08-12T00:11:40Z"},"geometry":{"type":"Point","coordinates":[-58.407159,-34.622579]}},{"type":"Feature","properties":{"id":4782,"mesa_hasta":1383,"codigo_dis":"1","mesa_desde":1377,"codigo_pos":null,"cant_mesas":"7","direccion":"AV JUJUY 1241","seccion":"3","circuito":"41","localidad":"CAP FED","distrito":"CAPITAL FEDERAL","establecim":"INSTITUTO SAN CRISTOBAL","dne_distri":1,"dne_seccio":3,"cartodb_id":146,"created_at":"2013-08-12T00:10:49Z","updated_at":"2013-08-12T00:11:40Z"},"geometry":{"type":"Point","coordinates":[-58.402217,-34.624423]}},{"type":"Feature","properties":{"id":4783,"mesa_hasta":1421,"codigo_dis":"1","mesa_desde":1415,"codigo_pos":null,"cant_mesas":"7","direccion":"AV ENTRE RIOS 1341","seccion":"3","circuito":"42","localidad":"CAP FED","distrito":"CAPITAL FEDERAL","establecim":"ESC N°21 CARLOS PELLEGRINI","dne_distri":1,"dne_seccio":3,"cartodb_id":147,"created_at":"2013-08-12T00:10:49Z","updated_at":"2013-08-12T00:11:40Z"},"geometry":{"type":"Point","coordinates":[-58.391557,-34.624512]}},{"type":"Feature","properties":{"id":4784,"mesa_hasta":1429,"codigo_dis":"1","mesa_desde":1422,"codigo_pos":null,"cant_mesas":"8","direccion":"AV ENTRE RIOS 1359","seccion":"3","circuito":"42","localidad":"CAP FED","distrito":"CAPITAL FEDERAL","establecim":"ESC N°22 CARLOS PELLEGRINI","dne_distri":1,"dne_seccio":3,"cartodb_id":148,"created_at":"2013-08-12T00:10:49Z","updated_at":"2013-08-12T00:11:40Z"},"geometry":{"type":"Point","coordinates":[-58.391546,-34.624728]}},{"type":"Feature","properties":{"id":4785,"mesa_hasta":1441,"codigo_dis":"1","mesa_desde":1430,"codigo_pos":null,"cant_mesas":"12","direccion":"PASCO 961","seccion":"3","circuito":"42","localidad":"CAP FED","distrito":"CAPITAL FEDERAL","establecim":"ESC N°23 GRAL VIAMONTE","dne_distri":1,"dne_seccio":3,"cartodb_id":149,"created_at":"2013-08-12T00:10:49Z","updated_at":"2013-08-12T00:11:40Z"},"geometry":{"type":"Point","coordinates":[-58.397438,-34.620287]}},{"type":"Feature","properties":{"id":4786,"mesa_hasta":1414,"codigo_dis":"1","mesa_desde":1404,"codigo_pos":null,"cant_mesas":"11","direccion":"AV SAN JUAN 2277","seccion":"3","circuito":"42","localidad":"CAP FED","distrito":"CAPITAL FEDERAL","establecim":"ESC N°25 GERVASIO A DE POSADAS","dne_distri":1,"dne_seccio":3,"cartodb_id":150,"created_at":"2013-08-12T00:10:49Z","updated_at":"2013-08-12T00:11:40Z"},"geometry":{"type":"Point","coordinates":[-58.397294,-34.622992]}},{"type":"Feature","properties":{"id":4787,"mesa_hasta":1451,"codigo_dis":"1","mesa_desde":1442,"codigo_pos":null,"cant_mesas":"10","direccion":"AV INDEPENDENCIA 2140","seccion":"3","circuito":"42","localidad":"CAP FED","distrito":"CAPITAL FEDERAL","establecim":"INSTITUTO NTRA SRA DEL HUERTO","dne_distri":1,"dne_seccio":3,"cartodb_id":151,"created_at":"2013-08-12T00:10:49Z","updated_at":"2013-08-12T00:11:40Z"},"geometry":{"type":"Point","coordinates":[-58.396538,-34.618584]}},{"type":"Feature","properties":{"id":4788,"mesa_hasta":1487,"codigo_dis":"1","mesa_desde":1481,"codigo_pos":null,"cant_mesas":"7","direccion":"PICHINCHA 1873","seccion":"4","circuito":"43","localidad":"CAPITAL FEDERAL","distrito":"CAPITAL FEDERAL","establecim":"ESC N°26.B.MIGUEL DE AZCUENAGA","dne_distri":1,"dne_seccio":4,"cartodb_id":152,"created_at":"2013-08-12T00:10:49Z","updated_at":"2013-08-12T00:11:40Z"},"geometry":{"type":"Point","coordinates":[-58.396307,-34.631149]}},{"type":"Feature","properties":{"id":4789,"mesa_hasta":1466,"codigo_dis":"1","mesa_desde":1452,"codigo_pos":null,"cant_mesas":"15","direccion":"CATULO CASTILLO 2750","seccion":"4","circuito":"43","localidad":"CAP FED","distrito":"CAPITAL FEDERAL","establecim":"INSTITUTO FELIX F BERNASCONI","dne_distri":1,"dne_seccio":4,"cartodb_id":153,"created_at":"2013-08-12T00:10:49Z","updated_at":"2013-08-12T00:11:40Z"},"geometry":{"type":"Point","coordinates":[-58.402172,-34.633486]}},{"type":"Feature","properties":{"id":4790,"mesa_hasta":1480,"codigo_dis":"1","mesa_desde":1467,"codigo_pos":null,"cant_mesas":"14","direccion":"JUJUY 2179/RONDEAU 2626","seccion":"4","circuito":"43","localidad":"CAPITAL FEDERAL","distrito":"CAPITAL FEDERAL","establecim":"INSTITUTO NTRA SRA DE LUJAN","dne_distri":1,"dne_seccio":4,"cartodb_id":154,"created_at":"2013-08-12T00:10:49Z","updated_at":"2013-08-12T00:11:40Z"},"geometry":{"type":"Point","coordinates":[-58.399205,-34.635576]}},{"type":"Feature","properties":{"id":4791,"mesa_hasta":1514,"codigo_dis":"1","mesa_desde":1503,"codigo_pos":null,"cant_mesas":"12","direccion":"LA RIOJA 1846","seccion":"4","circuito":"44","localidad":"CAP FED","distrito":"CAPITAL FEDERAL","establecim":"ESC N°2 JOSE MARIA GUTIERREZ","dne_distri":1,"dne_seccio":4,"cartodb_id":155,"created_at":"2013-08-12T00:10:49Z","updated_at":"2013-08-12T00:11:40Z"},"geometry":{"type":"Point","coordinates":[-58.406012,-34.632524]}},{"type":"Feature","properties":{"id":4792,"mesa_hasta":1498,"codigo_dis":"1","mesa_desde":1488,"codigo_pos":null,"cant_mesas":"11","direccion":"DEAN FUNES 1821","seccion":"4","circuito":"44","localidad":"CAPITAL FEDERAL","distrito":"CAPITAL FEDERAL","establecim":"ESC SUP N°11 RICARDO LEVENE","dne_distri":1,"dne_seccio":4,"cartodb_id":156,"created_at":"2013-08-12T00:10:49Z","updated_at":"2013-08-12T00:11:40Z"},"geometry":{"type":"Point","coordinates":[-58.404878,-34.632072]}},{"type":"Feature","properties":{"id":4793,"mesa_hasta":1502,"codigo_dis":"1","mesa_desde":1499,"codigo_pos":null,"cant_mesas":"4","direccion":"24 DE NOVIEMBRE 1665","seccion":"4","circuito":"44","localidad":"CAP FED","distrito":"CAPITAL FEDERAL","establecim":"INSTITUTO SAN VICENTE DE PAUL","dne_distri":1,"dne_seccio":4,"cartodb_id":157,"created_at":"2013-08-12T00:10:49Z","updated_at":"2013-08-12T00:11:40Z"},"geometry":{"type":"Point","coordinates":[-58.409938,-34.630713]}},{"type":"Feature","properties":{"id":4794,"mesa_hasta":1534,"codigo_dis":"1","mesa_desde":1531,"codigo_pos":null,"cant_mesas":"4","direccion":"JOSE A CORTEJARENA 3350","seccion":"4","circuito":"45","localidad":"CAP FED","distrito":"CAPITAL FEDERAL","establecim":"ESC DE RECUPERACION Nº5","dne_distri":1,"dne_seccio":4,"cartodb_id":158,"created_at":"2013-08-12T00:10:49Z","updated_at":"2013-08-12T00:11:40Z"},"geometry":{"type":"Point","coordinates":[-58.409026,-34.644117]}},{"type":"Feature","properties":{"id":4795,"mesa_hasta":1530,"codigo_dis":"1","mesa_desde":1526,"codigo_pos":null,"cant_mesas":"5","direccion":"ELIA 473","seccion":"4","circuito":"45","localidad":"CAP FED","distrito":"CAPITAL FEDERAL","establecim":"ESC N°19 PROV DE FORMOSA","dne_distri":1,"dne_seccio":4,"cartodb_id":159,"created_at":"2013-08-12T00:10:49Z","updated_at":"2013-08-12T00:11:40Z"},"geometry":{"type":"Point","coordinates":[-58.408786,-34.643594]}},{"type":"Feature","properties":{"id":4796,"mesa_hasta":1525,"codigo_dis":"1","mesa_desde":1515,"codigo_pos":null,"cant_mesas":"11","direccion":"AV ALMAFUERTE 66","seccion":"4","circuito":"45","localidad":"CAP FED","distrito":"CAPITAL FEDERAL","establecim":"ESC Nº2 PATRICIOS","dne_distri":1,"dne_seccio":4,"cartodb_id":160,"created_at":"2013-08-12T00:10:49Z","updated_at":"2013-08-12T00:11:40Z"},"geometry":{"type":"Point","coordinates":[-58.411275,-34.63907]}},{"type":"Feature","properties":{"id":4797,"mesa_hasta":1544,"codigo_dis":"1","mesa_desde":1535,"codigo_pos":null,"cant_mesas":"10","direccion":"ZAVALETA 204","seccion":"4","circuito":"46","localidad":"CAP FED","distrito":"CAPITAL FEDERAL","establecim":"ENET N°7 D. LAVALLE DE LAVALLE","dne_distri":1,"dne_seccio":4,"cartodb_id":161,"created_at":"2013-08-12T00:10:49Z","updated_at":"2013-08-12T00:11:40Z"},"geometry":{"type":"Point","coordinates":[-58.403041,-34.639301]}},{"type":"Feature","properties":{"id":4798,"mesa_hasta":1548,"codigo_dis":"1","mesa_desde":1545,"codigo_pos":null,"cant_mesas":"4","direccion":"JUAN CARLOS GOMEZ 253","seccion":"4","circuito":"46","localidad":"CAP FED","distrito":"CAPITAL FEDERAL","establecim":"ESC DE COM N°18 R DE SUECIA","dne_distri":1,"dne_seccio":4,"cartodb_id":162,"created_at":"2013-08-12T00:10:49Z","updated_at":"2013-08-12T00:11:40Z"},"geometry":{"type":"Point","coordinates":[-58.391231,-34.637312]}},{"type":"Feature","properties":{"id":4799,"mesa_hasta":1553,"codigo_dis":"1","mesa_desde":1549,"codigo_pos":null,"cant_mesas":"5","direccion":"AV CASEROS 2152","seccion":"4","circuito":"46","localidad":"CAP FED","distrito":"CAPITAL FEDERAL","establecim":"ESC N°18 JUAN E PESTALOZZI","dne_distri":1,"dne_seccio":4,"cartodb_id":163,"created_at":"2013-08-12T00:10:49Z","updated_at":"2013-08-12T00:11:40Z"},"geometry":{"type":"Point","coordinates":[-58.392814,-34.634906]}},{"type":"Feature","properties":{"id":4800,"mesa_hasta":1566,"codigo_dis":"1","mesa_desde":1554,"codigo_pos":null,"cant_mesas":"13","direccion":"LAFAYETTE 1879","seccion":"4","circuito":"47","localidad":"CAP FED","distrito":"CAPITAL FEDERAL","establecim":"ESC N° 11 REPUBLICA DE HAITI","dne_distri":1,"dne_seccio":4,"cartodb_id":164,"created_at":"2013-08-12T00:10:49Z","updated_at":"2013-08-12T00:11:40Z"},"geometry":{"type":"Point","coordinates":[-58.390331,-34.656728]}},{"type":"Feature","properties":{"id":4801,"mesa_hasta":1583,"codigo_dis":"1","mesa_desde":1578,"codigo_pos":null,"cant_mesas":"6","direccion":"AV AMANCIO ALCORTA 2502","seccion":"4","circuito":"47","localidad":"CAP FED","distrito":"CAPITAL FEDERAL","establecim":"ESC N°25 MARCOS PAZ","dne_distri":1,"dne_seccio":4,"cartodb_id":165,"created_at":"2013-08-12T00:10:49Z","updated_at":"2013-08-12T00:11:40Z"},"geometry":{"type":"Point","coordinates":[-58.3962,-34.642714]}},{"type":"Feature","properties":{"id":4802,"mesa_hasta":1577,"codigo_dis":"1","mesa_desde":1567,"codigo_pos":null,"cant_mesas":"11","direccion":"AV V SARSFIELD  1351/CALIFORNIA S/N","seccion":"4","circuito":"47","localidad":"CAP FED","distrito":"CAPITAL FEDERAL","establecim":"INSTITUTO SAGRADO CORAZON","dne_distri":1,"dne_seccio":4,"cartodb_id":166,"created_at":"2013-08-12T00:10:49Z","updated_at":"2013-08-12T00:11:40Z"},"geometry":{"type":"Point","coordinates":[-58.389291,-34.650465]}},{"type":"Feature","properties":{"id":4803,"mesa_hasta":1588,"codigo_dis":"1","mesa_desde":1584,"codigo_pos":null,"cant_mesas":"5","direccion":"CACHI 724","seccion":"4","circuito":"47","localidad":"CAP FED","distrito":"CAPITAL FEDERAL","establecim":"NTRA SRA DE LA DIV PROVIDENCIA","dne_distri":1,"dne_seccio":4,"cartodb_id":167,"created_at":"2013-08-12T00:10:49Z","updated_at":"2013-08-12T00:11:40Z"},"geometry":{"type":"Point","coordinates":[-58.411157,-34.651141]}},{"type":"Feature","properties":{"id":4804,"mesa_hasta":1617,"codigo_dis":"1","mesa_desde":1614,"codigo_pos":null,"cant_mesas":"4","direccion":"RAMON CARRILLO 317","seccion":"4","circuito":"48","localidad":"CAP FED","distrito":"CAPITAL FEDERAL","establecim":"CENTRO CENTES Nº1","dne_distri":1,"dne_seccio":4,"cartodb_id":168,"created_at":"2013-08-12T00:10:49Z","updated_at":"2013-08-12T00:11:40Z"},"geometry":{"type":"Point","coordinates":[-58.38224,-34.636114]}},{"type":"Feature","properties":{"id":4805,"mesa_hasta":1629,"codigo_dis":"1","mesa_desde":1624,"codigo_pos":null,"cant_mesas":"6","direccion":"JOSE A SALMUN FEIJOO 1073","seccion":"4","circuito":"48","localidad":"CAP FED","distrito":"CAPITAL FEDERAL","establecim":"ESC N°28 FRANCISCO P MORENO","dne_distri":1,"dne_seccio":4,"cartodb_id":169,"created_at":"2013-08-12T00:10:49Z","updated_at":"2013-08-12T00:11:40Z"},"geometry":{"type":"Point","coordinates":[-58.377766,-34.644091]}},{"type":"Feature","properties":{"id":4806,"mesa_hasta":1604,"codigo_dis":"1","mesa_desde":1600,"codigo_pos":null,"cant_mesas":"5","direccion":"AV MONTES DE OCA 439","seccion":"4","circuito":"48","localidad":"CAP FED","distrito":"CAPITAL FEDERAL","establecim":"ESC N°3 BERNARDO DE IRIGOYEN","dne_distri":1,"dne_seccio":4,"cartodb_id":170,"created_at":"2013-08-12T00:10:49Z","updated_at":"2013-08-12T00:11:40Z"},"geometry":{"type":"Point","coordinates":[-58.375791,-34.633751]}},{"type":"Feature","properties":{"id":4807,"mesa_hasta":1623,"codigo_dis":"1","mesa_desde":1618,"codigo_pos":null,"cant_mesas":"6","direccion":"AV AMANCIO ALCORTA 1934","seccion":"4","circuito":"48","localidad":"CAP FED","distrito":"CAPITAL FEDERAL","establecim":"ESC N°8 CARLOS N VERGARA","dne_distri":1,"dne_seccio":4,"cartodb_id":171,"created_at":"2013-08-12T00:10:49Z","updated_at":"2013-08-12T00:11:40Z"},"geometry":{"type":"Point","coordinates":[-58.388574,-34.639723]}},{"type":"Feature","properties":{"id":4808,"mesa_hasta":1599,"codigo_dis":"1","mesa_desde":1594,"codigo_pos":null,"cant_mesas":"6","direccion":"ARCAMENDIA 793","seccion":"4","circuito":"48","localidad":null,"distrito":"CAPITAL FEDERAL","establecim":"ESC Nº5 GRAL M M DE GUEMES","dne_distri":1,"dne_seccio":4,"cartodb_id":172,"created_at":"2013-08-12T00:10:49Z","updated_at":"2013-08-12T00:11:40Z"},"geometry":{"type":"Point","coordinates":[-58.379807,-34.641903]}},{"type":"Feature","properties":{"id":4809,"mesa_hasta":1613,"codigo_dis":"1","mesa_desde":1605,"codigo_pos":null,"cant_mesas":"9","direccion":"VIEYTES 942","seccion":"4","circuito":"48","localidad":"CAP FED","distrito":"CAPITAL FEDERAL","establecim":"ESC TEC N°10 FRAY LUIS BELTRAN","dne_distri":1,"dne_seccio":4,"cartodb_id":173,"created_at":"2013-08-12T00:10:49Z","updated_at":"2013-08-12T00:11:40Z"},"geometry":{"type":"Point","coordinates":[-58.379195,-34.643479]}},{"type":"Feature","properties":{"id":4810,"mesa_hasta":1593,"codigo_dis":"1","mesa_desde":1589,"codigo_pos":null,"cant_mesas":"5","direccion":"ARCAMENDIA 743","seccion":"4","circuito":"48","localidad":"CAP FED","distrito":"CAPITAL FEDERAL","establecim":"LICEO COM N°3 JOSE M ESTRADA","dne_distri":1,"dne_seccio":4,"cartodb_id":174,"created_at":"2013-08-12T00:10:49Z","updated_at":"2013-08-12T00:11:40Z"},"geometry":{"type":"Point","coordinates":[-58.380168,-34.640983]}},{"type":"Feature","properties":{"id":4811,"mesa_hasta":1642,"codigo_dis":"1","mesa_desde":1630,"codigo_pos":null,"cant_mesas":"13","direccion":"SANTA MAGDALENA 431","seccion":"4","circuito":"49","localidad":"CAP FED","distrito":"CAPITAL FEDERAL","establecim":"ENET N°14 LIBERTAD","dne_distri":1,"dne_seccio":4,"cartodb_id":175,"created_at":"2013-08-12T00:10:49Z","updated_at":"2013-08-12T00:11:40Z"},"geometry":{"type":"Point","coordinates":[-58.381149,-34.647826]}},{"type":"Feature","properties":{"id":4812,"mesa_hasta":1665,"codigo_dis":"1","mesa_desde":1658,"codigo_pos":null,"cant_mesas":"8","direccion":"SAN ANTONIO 682","seccion":"4","circuito":"49","localidad":"CAP FED","distrito":"CAPITAL FEDERAL","establecim":"ESC N°20 NIEVES E DE OROMI","dne_distri":1,"dne_seccio":4,"cartodb_id":176,"created_at":"2013-08-12T00:10:49Z","updated_at":"2013-08-12T00:11:40Z"},"geometry":{"type":"Point","coordinates":[-58.377651,-34.650056]}},{"type":"Feature","properties":{"id":4813,"mesa_hasta":1657,"codigo_dis":"1","mesa_desde":1651,"codigo_pos":null,"cant_mesas":"7","direccion":"CALIFORNIA 1925/CALIFORNIA  S/N","seccion":"4","circuito":"49","localidad":"CAP FED","distrito":"CAPITAL FEDERAL","establecim":"ESC N°24 PRESIDENTE DERQUI","dne_distri":1,"dne_seccio":4,"cartodb_id":177,"created_at":"2013-08-12T00:10:49Z","updated_at":"2013-08-12T00:11:40Z"},"geometry":{"type":"Point","coordinates":[-58.375712,-34.647191]}},{"type":"Feature","properties":{"id":4814,"mesa_hasta":1650,"codigo_dis":"1","mesa_desde":1643,"codigo_pos":null,"cant_mesas":"8","direccion":"SALOM 332","seccion":"4","circuito":"49","localidad":"CAP FED","distrito":"CAPITAL FEDERAL","establecim":"ESC Nº13 FRAY MAMERTO ESQUIU","dne_distri":1,"dne_seccio":4,"cartodb_id":178,"created_at":"2013-08-12T00:10:49Z","updated_at":"2013-08-12T00:11:40Z"},"geometry":{"type":"Point","coordinates":[-58.382522,-34.646321]}},{"type":"Feature","properties":{"id":4815,"mesa_hasta":1695,"codigo_dis":"1","mesa_desde":1688,"codigo_pos":null,"cant_mesas":"8","direccion":"AV MONTES DE OCA 121","seccion":"4","circuito":"50","localidad":"CAP FED","distrito":"CAPITAL FEDERAL","establecim":"ENET N°4 REP DEL LIBANO","dne_distri":1,"dne_seccio":4,"cartodb_id":179,"created_at":"2013-08-12T00:10:49Z","updated_at":"2013-08-12T00:11:40Z"},"geometry":{"type":"Point","coordinates":[-58.377256,-34.630083]}},{"type":"Feature","properties":{"id":4816,"mesa_hasta":1687,"codigo_dis":"1","mesa_desde":1680,"codigo_pos":null,"cant_mesas":"8","direccion":"WENCESLAO VILLAFAÑE 1342","seccion":"4","circuito":"50","localidad":"CAP FED","distrito":"CAPITAL FEDERAL","establecim":"ESC DE BELLAS ARTES M BELGRANO","dne_distri":1,"dne_seccio":4,"cartodb_id":180,"created_at":"2013-08-12T00:10:49Z","updated_at":"2013-08-12T00:11:40Z"},"geometry":{"type":"Point","coordinates":[-58.371493,-34.634857]}},{"type":"Feature","properties":{"id":4817,"mesa_hasta":1706,"codigo_dis":"1","mesa_desde":1698,"codigo_pos":null,"cant_mesas":"9","direccion":"GRAL HORNOS 530","seccion":"4","circuito":"50","localidad":"CAP FED","distrito":"CAPITAL FEDERAL","establecim":"ESC N°1 REP DE BOLIVIA","dne_distri":1,"dne_seccio":4,"cartodb_id":181,"created_at":"2013-08-12T00:10:49Z","updated_at":"2013-08-12T00:11:40Z"},"geometry":{"type":"Point","coordinates":[-58.377165,-34.633869]}},{"type":"Feature","properties":{"id":4818,"mesa_hasta":1679,"codigo_dis":"1","mesa_desde":1666,"codigo_pos":null,"cant_mesas":"14","direccion":"AV CASEROS 734","seccion":"4","circuito":"50","localidad":"CAP FED","distrito":"CAPITAL FEDERAL","establecim":"ESC N°7 JUAN DE GARAY","dne_distri":1,"dne_seccio":4,"cartodb_id":182,"created_at":"2013-08-12T00:10:49Z","updated_at":"2013-08-12T00:11:40Z"},"geometry":{"type":"Point","coordinates":[-58.374903,-34.627197]}},{"type":"Feature","properties":{"id":4819,"mesa_hasta":1697,"codigo_dis":"1","mesa_desde":1696,"codigo_pos":null,"cant_mesas":"2","direccion":"PINZON 1480","seccion":"4","circuito":"50","localidad":"CAP FED","distrito":"CAPITAL FEDERAL","establecim":"INSTITUTO SANTA FELICITAS","dne_distri":1,"dne_seccio":4,"cartodb_id":183,"created_at":"2013-08-12T00:10:49Z","updated_at":"2013-08-12T00:11:40Z"},"geometry":{"type":"Point","coordinates":[-58.372462,-34.636958]}},{"type":"Feature","properties":{"id":4820,"mesa_hasta":1736,"codigo_dis":"1","mesa_desde":1717,"codigo_pos":null,"cant_mesas":"20","direccion":"MONTES DE OCA 1356","seccion":"4","circuito":"51","localidad":"CAP FED","distrito":"CAPITAL FEDERAL","establecim":"ESC DE COM N°1 J V GONZALEZ","dne_distri":1,"dne_seccio":4,"cartodb_id":184,"created_at":"2013-08-12T00:10:49Z","updated_at":"2013-08-12T00:11:40Z"},"geometry":{"type":"Point","coordinates":[-58.373055,-34.643421]}},{"type":"Feature","properties":{"id":4821,"mesa_hasta":1716,"codigo_dis":"1","mesa_desde":1707,"codigo_pos":null,"cant_mesas":"10","direccion":"AV MONTES DE OCA 1844","seccion":"4","circuito":"51","localidad":"CAP FED","distrito":"CAPITAL FEDERAL","establecim":"INSTITUTO ZACCARIA","dne_distri":1,"dne_seccio":4,"cartodb_id":185,"created_at":"2013-08-12T00:10:49Z","updated_at":"2013-08-12T00:11:40Z"},"geometry":{"type":"Point","coordinates":[-58.372494,-34.648664]}},{"type":"Feature","properties":{"id":4822,"mesa_hasta":1762,"codigo_dis":"1","mesa_desde":1754,"codigo_pos":null,"cant_mesas":"9","direccion":"BRANDSEN 1057","seccion":"4","circuito":"52","localidad":"CAP FED","distrito":"CAPITAL FEDERAL","establecim":"ESC Nº11 ANTONIO BUCICH","dne_distri":1,"dne_seccio":4,"cartodb_id":186,"created_at":"2013-08-12T00:10:49Z","updated_at":"2013-08-12T00:11:40Z"},"geometry":{"type":"Point","coordinates":[-58.367521,-34.637017]}},{"type":"Feature","properties":{"id":4823,"mesa_hasta":1768,"codigo_dis":"1","mesa_desde":1763,"codigo_pos":null,"cant_mesas":"6","direccion":"SUAREZ 1145","seccion":"4","circuito":"52","localidad":"CAP FED","distrito":"CAPITAL FEDERAL","establecim":"ESC Nº13 REPUBLICA DE CHILE","dne_distri":1,"dne_seccio":4,"cartodb_id":187,"created_at":"2013-08-12T00:10:49Z","updated_at":"2013-08-12T00:11:40Z"},"geometry":{"type":"Point","coordinates":[-58.368665,-34.638064]}},{"type":"Feature","properties":{"id":4824,"mesa_hasta":1771,"codigo_dis":"1","mesa_desde":1769,"codigo_pos":null,"cant_mesas":"3","direccion":"RIO CUARTO 1249","seccion":"4","circuito":"52","localidad":"CAP FED","distrito":"CAPITAL FEDERAL","establecim":"ESC Nº19 REP ITALIANA","dne_distri":1,"dne_seccio":4,"cartodb_id":188,"created_at":"2013-08-12T00:10:49Z","updated_at":"2013-08-12T00:11:40Z"},"geometry":{"type":"Point","coordinates":[-58.367215,-34.647663]}},{"type":"Feature","properties":{"id":4825,"mesa_hasta":1745,"codigo_dis":"1","mesa_desde":1737,"codigo_pos":null,"cant_mesas":"9","direccion":"ROCHA 1226","seccion":"4","circuito":"52","localidad":"CAP FED","distrito":"CAPITAL FEDERAL","establecim":"ESC Nº3 JUAN MARTIN GUTIERREZ","dne_distri":1,"dne_seccio":4,"cartodb_id":189,"created_at":"2013-08-12T00:10:49Z","updated_at":"2013-08-12T00:11:40Z"},"geometry":{"type":"Point","coordinates":[-58.367919,-34.64193]}},{"type":"Feature","properties":{"id":4826,"mesa_hasta":1753,"codigo_dis":"1","mesa_desde":1746,"codigo_pos":null,"cant_mesas":"8","direccion":"B QUINQUELA MARTIN 1081","seccion":"4","circuito":"52","localidad":"CAP FED","distrito":"CAPITAL FEDERAL","establecim":"ESC Nº4 JOSE J BERRUTTI","dne_distri":1,"dne_seccio":4,"cartodb_id":190,"created_at":"2013-08-12T00:10:49Z","updated_at":"2013-08-12T00:11:40Z"},"geometry":{"type":"Point","coordinates":[-58.365508,-34.64237]}},{"type":"Feature","properties":{"id":4827,"mesa_hasta":1784,"codigo_dis":"1","mesa_desde":1781,"codigo_pos":null,"cant_mesas":"4","direccion":"AV PEDRO DE MENDOZA 1777","seccion":"4","circuito":"53","localidad":"CAPITAL FEDERAL","distrito":"CAPITAL FEDERAL","establecim":"ENET N°31 MAESTRO QUINQUELA","dne_distri":1,"dne_seccio":4,"cartodb_id":191,"created_at":"2013-08-12T00:10:49Z","updated_at":"2013-08-12T00:11:40Z"},"geometry":{"type":"Point","coordinates":[-58.359874,-34.638859]}},{"type":"Feature","properties":{"id":4828,"mesa_hasta":1808,"codigo_dis":"1","mesa_desde":1801,"codigo_pos":null,"cant_mesas":"8","direccion":"ARAOZ DE LAMADRID 676","seccion":"4","circuito":"53","localidad":"CAP FED","distrito":"CAPITAL FEDERAL","establecim":"ESC N°29 ADULTOS M BELGRANO","dne_distri":1,"dne_seccio":4,"cartodb_id":192,"created_at":"2013-08-12T00:10:49Z","updated_at":"2013-08-12T00:11:40Z"},"geometry":{"type":"Point","coordinates":[-58.361663,-34.63859]}},{"type":"Feature","properties":{"id":4829,"mesa_hasta":1780,"codigo_dis":"1","mesa_desde":1772,"codigo_pos":null,"cant_mesas":"9","direccion":"AV PEDRO DE MENDOZA 1835","seccion":"4","circuito":"53","localidad":"CAPITAL FEDERAL","distrito":"CAPITAL FEDERAL","establecim":"ESC N°9 PEDRO DE MENDOZA","dne_distri":1,"dne_seccio":4,"cartodb_id":193,"created_at":"2013-08-12T00:10:49Z","updated_at":"2013-08-12T00:11:40Z"},"geometry":{"type":"Point","coordinates":[-58.361019,-34.639004]}},{"type":"Feature","properties":{"id":4830,"mesa_hasta":1793,"codigo_dis":"1","mesa_desde":1785,"codigo_pos":null,"cant_mesas":"9","direccion":"ARISTOBULO DEL VALLE 471","seccion":"4","circuito":"53","localidad":"CAP FED","distrito":"CAPITAL FEDERAL","establecim":"ESC Nº1 ALTE GUILLERMO BROWN","dne_distri":1,"dne_seccio":4,"cartodb_id":194,"created_at":"2013-08-12T00:10:49Z","updated_at":"2013-08-12T00:11:40Z"},"geometry":{"type":"Point","coordinates":[-58.361473,-34.63319]}},{"type":"Feature","properties":{"id":4831,"mesa_hasta":1800,"codigo_dis":"1","mesa_desde":1794,"codigo_pos":null,"cant_mesas":"7","direccion":"GRAL GREGORIO ARAOZ DE  LAMADRID 499","seccion":"4","circuito":"53","localidad":"CAP FED","distrito":"CAPITAL FEDERAL","establecim":"ESC Nº10 G ARAOZ DE LAMADRID","dne_distri":1,"dne_seccio":4,"cartodb_id":195,"created_at":"2013-08-12T00:10:49Z","updated_at":"2013-08-12T00:11:40Z"},"geometry":{"type":"Point","coordinates":[-58.359352,-34.637398]}},{"type":"Feature","properties":{"id":4832,"mesa_hasta":1814,"codigo_dis":"1","mesa_desde":1809,"codigo_pos":null,"cant_mesas":"6","direccion":"NECOCHEA 1136","seccion":"4","circuito":"53","localidad":"CAP FED","distrito":"CAPITAL FEDERAL","establecim":"ESC Nº14 AGUSTIN R CAFFARENA","dne_distri":1,"dne_seccio":4,"cartodb_id":196,"created_at":"2013-08-12T00:10:49Z","updated_at":"2013-08-12T00:11:40Z"},"geometry":{"type":"Point","coordinates":[-58.357727,-34.634228]}},{"type":"Feature","properties":{"id":4833,"mesa_hasta":1842,"codigo_dis":"1","mesa_desde":1836,"codigo_pos":null,"cant_mesas":"7","direccion":"WENCESLAO VILLAFAÑE 453","seccion":"4","circuito":"54","localidad":"CAP FED","distrito":"CAPITAL FEDERAL","establecim":"ESC Nº2 DR CARLOS R VIGNALE","dne_distri":1,"dne_seccio":4,"cartodb_id":197,"created_at":"2013-08-12T00:10:49Z","updated_at":"2013-08-12T00:11:40Z"},"geometry":{"type":"Point","coordinates":[-58.361714,-34.63228]}},{"type":"Feature","properties":{"id":4834,"mesa_hasta":1824,"codigo_dis":"1","mesa_desde":1815,"codigo_pos":null,"cant_mesas":"10","direccion":"E BRAUN MENENDEZ 260","seccion":"4","circuito":"54","localidad":"CAP FED","distrito":"CAPITAL FEDERAL","establecim":"ESC Nº8 CARLOS DELLA PENA","dne_distri":1,"dne_seccio":4,"cartodb_id":198,"created_at":"2013-08-12T00:10:49Z","updated_at":"2013-08-12T00:11:40Z"},"geometry":{"type":"Point","coordinates":[-58.362578,-34.627364]}},{"type":"Feature","properties":{"id":4835,"mesa_hasta":1835,"codigo_dis":"1","mesa_desde":1825,"codigo_pos":null,"cant_mesas":"11","direccion":"NECOCHEA 330","seccion":"4","circuito":"54","localidad":"CAP FED","distrito":"CAPITAL FEDERAL","establecim":"INST MADRE DE LOS EMIGRANTES","dne_distri":1,"dne_seccio":4,"cartodb_id":199,"created_at":"2013-08-12T00:10:49Z","updated_at":"2013-08-12T00:11:40Z"},"geometry":{"type":"Point","coordinates":[-58.363787,-34.627643]}},{"type":"Feature","properties":{"id":4836,"mesa_hasta":1855,"codigo_dis":"1","mesa_desde":1843,"codigo_pos":null,"cant_mesas":"13","direccion":"PINZON 1480","seccion":"4","circuito":"54","localidad":"CAP FED","distrito":"CAPITAL FEDERAL","establecim":"INSTITUTO SANTA FELICITAS","dne_distri":1,"dne_seccio":4,"cartodb_id":200,"created_at":"2013-08-12T00:10:49Z","updated_at":"2013-08-12T00:11:40Z"},"geometry":{"type":"Point","coordinates":[-58.372462,-34.636958]}},{"type":"Feature","properties":{"id":4837,"mesa_hasta":1883,"codigo_dis":"1","mesa_desde":1876,"codigo_pos":null,"cant_mesas":"8","direccion":"AV AMANCIO ALCORTA 3402","seccion":"4","circuito":"55","localidad":"CAP FED","distrito":"CAPITAL FEDERAL","establecim":"ESC N°16 SABINA B DE BOZZALLA","dne_distri":1,"dne_seccio":4,"cartodb_id":201,"created_at":"2013-08-12T00:10:49Z","updated_at":"2013-08-12T00:11:40Z"},"geometry":{"type":"Point","coordinates":[-58.407461,-34.652419]}},{"type":"Feature","properties":{"id":4838,"mesa_hasta":1875,"codigo_dis":"1","mesa_desde":1869,"codigo_pos":null,"cant_mesas":"7","direccion":"TRAFUL 3847","seccion":"4","circuito":"55","localidad":"CAP FED","distrito":"CAPITAL FEDERAL","establecim":"ESC N°23 DR LORENZO ANADON","dne_distri":1,"dne_seccio":4,"cartodb_id":202,"created_at":"2013-08-12T00:10:49Z","updated_at":"2013-08-12T00:11:40Z"},"geometry":{"type":"Point","coordinates":[-58.41525,-34.651673]}},{"type":"Feature","properties":{"id":4839,"mesa_hasta":1862,"codigo_dis":"1","mesa_desde":1856,"codigo_pos":null,"cant_mesas":"7","direccion":"LYNCH 3536","seccion":"4","circuito":"55","localidad":"CAP FED","distrito":"CAPITAL FEDERAL","establecim":"ESC N°24 MARTIN GUERRICO","dne_distri":1,"dne_seccio":4,"cartodb_id":203,"created_at":"2013-08-12T00:10:49Z","updated_at":"2013-08-12T00:11:40Z"},"geometry":{"type":"Point","coordinates":[-58.409752,-34.652086]}},{"type":"Feature","properties":{"id":4840,"mesa_hasta":1868,"codigo_dis":"1","mesa_desde":1863,"codigo_pos":null,"cant_mesas":"6","direccion":"ALBERTO EINSTEIN 599","seccion":"4","circuito":"55","localidad":"CAP FED","distrito":"CAPITAL FEDERAL","establecim":"INSTITUTO SAN VICENTE DE PAUL","dne_distri":1,"dne_seccio":4,"cartodb_id":204,"created_at":"2013-08-12T00:10:49Z","updated_at":"2013-08-12T00:11:40Z"},"geometry":{"type":"Point","coordinates":[-58.412413,-34.652322]}},{"type":"Feature","properties":{"id":4841,"mesa_hasta":1896,"codigo_dis":"1","mesa_desde":1891,"codigo_pos":null,"cant_mesas":"6","direccion":"AV INT FRANCISCO RABANAL  1549","seccion":"4","circuito":"56","localidad":"CAP FED","distrito":"CAPITAL FEDERAL","establecim":"ENET N°13 F M DEL PLUMERILLO","dne_distri":1,"dne_seccio":4,"cartodb_id":205,"created_at":"2013-08-12T00:10:49Z","updated_at":"2013-08-12T00:11:40Z"},"geometry":{"type":"Point","coordinates":[-58.420909,-34.655858]}},{"type":"Feature","properties":{"id":4842,"mesa_hasta":1900,"codigo_dis":"1","mesa_desde":1897,"codigo_pos":null,"cant_mesas":"4","direccion":"ECHAURI 1576","seccion":"4","circuito":"56","localidad":"CAP FED","distrito":"CAPITAL FEDERAL","establecim":"ESC N°6 DR ADOLFO SALDIAS","dne_distri":1,"dne_seccio":4,"cartodb_id":206,"created_at":"2013-08-12T00:10:49Z","updated_at":"2013-08-12T00:11:40Z"},"geometry":{"type":"Point","coordinates":[-58.417407,-34.657362]}},{"type":"Feature","properties":{"id":4843,"mesa_hasta":1910,"codigo_dis":"1","mesa_desde":1901,"codigo_pos":null,"cant_mesas":"10","direccion":"FOURNIER 3157","seccion":"4","circuito":"56","localidad":"CAP FED","distrito":"CAPITAL FEDERAL","establecim":"INSTITUTO NUEVA POMPEYA","dne_distri":1,"dne_seccio":4,"cartodb_id":207,"created_at":"2013-08-12T00:10:49Z","updated_at":"2013-08-12T00:11:40Z"},"geometry":{"type":"Point","coordinates":[-58.417975,-34.652558]}},{"type":"Feature","properties":{"id":4844,"mesa_hasta":1890,"codigo_dis":"1","mesa_desde":1884,"codigo_pos":null,"cant_mesas":"7","direccion":"TILCARA 3178","seccion":"4","circuito":"56","localidad":"CAP FED","distrito":"CAPITAL FEDERAL","establecim":"INSTITUTO SAN ANTONIO DE PADUA","dne_distri":1,"dne_seccio":4,"cartodb_id":208,"created_at":"2013-08-12T00:10:49Z","updated_at":"2013-08-12T00:11:40Z"},"geometry":{"type":"Point","coordinates":[-58.418733,-34.652955]}},{"type":"Feature","properties":{"id":4845,"mesa_hasta":1951,"codigo_dis":"1","mesa_desde":1944,"codigo_pos":null,"cant_mesas":"8","direccion":"ALAGON 300","seccion":"4","circuito":"57","localidad":"CAP FED","distrito":"CAPITAL FEDERAL","establecim":"ESC N°1 M SILVENTI DE AMATO","dne_distri":1,"dne_seccio":4,"cartodb_id":209,"created_at":"2013-08-12T00:10:49Z","updated_at":"2013-08-12T00:11:40Z"},"geometry":{"type":"Point","coordinates":[-58.421121,-34.643464]}},{"type":"Feature","properties":{"id":4846,"mesa_hasta":1924,"codigo_dis":"1","mesa_desde":1911,"codigo_pos":null,"cant_mesas":"14","direccion":"ITAQUI 2050","seccion":"4","circuito":"57","localidad":"CAP FED","distrito":"CAPITAL FEDERAL","establecim":"ESC N°13 P ALBERTI","dne_distri":1,"dne_seccio":4,"cartodb_id":210,"created_at":"2013-08-12T00:10:49Z","updated_at":"2013-08-12T00:11:40Z"},"geometry":{"type":"Point","coordinates":[-58.431841,-34.653639]}},{"type":"Feature","properties":{"id":4847,"mesa_hasta":1936,"codigo_dis":"1","mesa_desde":1925,"codigo_pos":null,"cant_mesas":"12","direccion":"CACHI 77","seccion":"4","circuito":"57","localidad":"CAP FED","distrito":"CAPITAL FEDERAL","establecim":"ESC N°14 PROVINCIA DE SAN LUIS","dne_distri":1,"dne_seccio":4,"cartodb_id":211,"created_at":"2013-08-12T00:10:49Z","updated_at":"2013-08-12T00:11:40Z"},"geometry":{"type":"Point","coordinates":[-58.413312,-34.644218]}},{"type":"Feature","properties":{"id":4848,"mesa_hasta":1958,"codigo_dis":"1","mesa_desde":1952,"codigo_pos":null,"cant_mesas":"7","direccion":"MOM 2358","seccion":"4","circuito":"57","localidad":"CAP FED","distrito":"CAPITAL FEDERAL","establecim":"ESC N°22","dne_distri":1,"dne_seccio":4,"cartodb_id":212,"created_at":"2013-08-12T00:10:49Z","updated_at":"2013-08-12T00:11:40Z"},"geometry":{"type":"Point","coordinates":[-58.432497,-34.64627]}},