{"type":"FeatureCollection","features":[{"type":"Feature","properties":{"id":2551,"mesa_desde":21,"mesa_hasta":28,"cant_mesas":"8","establecim":"ESCUELA ET N°8","direccion":"PIO BAROJA Y QUESADA","dne_seccion":70,"dne_distri":2,"circuito":"00583","electores":2808,"votantes":2299,"positivos":2235,"total_parcodigo":1413,"vot_parcodigo":501,"cartodb_id":1274,"created_at":"2013-08-28T21:49:43Z","updated_at":"2013-08-28T21:49:43Z"},"geometry":{"type":"Point","coordinates":[-58.446171,-34.714655]}},{"type":"Feature","properties":{"id":146,"mesa_desde":38,"mesa_hasta":40,"cant_mesas":"3","establecim":"ESCUELA EP N°42","direccion":"BELGRANO 1378","dne_seccion":4,"dne_distri":2,"circuito":"00023","electores":987,"votantes":745,"positivos":726,"total_parcodigo":250,"vot_parcodigo":510,"cartodb_id":810,"created_at":"2013-08-28T21:49:43Z","updated_at":"2013-08-28T21:49:43Z"},"geometry":{"type":"Point","coordinates":[-58.361045,-34.671756]}},{"type":"Feature","properties":{"id":147,"mesa_desde":28,"mesa_hasta":33,"cant_mesas":"6","establecim":"ESCUELA EP N°46","direccion":"LAVALLE 131","dne_seccion":4,"dne_distri":2,"circuito":"00023","electores":2095,"votantes":1607,"positivos":1573,"total_parcodigo":556,"vot_parcodigo":510,"cartodb_id":811,"created_at":"2013-08-28T21:49:43Z","updated_at":"2013-08-28T21:49:43Z"},"geometry":{"type":"Point","coordinates":[-58.36777,-34.663586]}},{"type":"Feature","properties":{"id":148,"mesa_desde":13,"mesa_hasta":22,"cant_mesas":"10","establecim":"ESCUELA ES N°13","direccion":"BERUTI 263 ESQ.BARCALA","dne_seccion":4,"dne_distri":2,"circuito":"00023","electores":3499,"votantes":2675,"positivos":2586,"total_parcodigo":888,"vot_parcodigo":510,"cartodb_id":812,"created_at":"2013-08-28T21:49:43Z","updated_at":"2013-08-28T21:49:43Z"},"geometry":{"type":"Point","coordinates":[-58.369244,-34.663123]}},{"type":"Feature","properties":{"id":149,"mesa_desde":1,"mesa_hasta":12,"cant_mesas":"12","establecim":"ESCUELA ES N°18","direccion":"AV.BELGRANO 355","dne_seccion":4,"dne_distri":2,"circuito":"00023","electores":4201,"votantes":3055,"positivos":3222,"total_parcodigo":1166,"vot_parcodigo":510,"cartodb_id":813,"created_at":"2013-08-28T21:49:43Z","updated_at":"2013-08-28T21:49:43Z"},"geometry":{"type":"Point","coordinates":[-58.369289,-34.660819]}},{"type":"Feature","properties":{"id":150,"mesa_desde":34,"mesa_hasta":37,"cant_mesas":"4","establecim":"ESCUELA ET N°5","direccion":"J.B.PALAA 747","dne_seccion":4,"dne_distri":2,"circuito":"00023","electores":1398,"votantes":1100,"positivos":1058,"total_parcodigo":366,"vot_parcodigo":510,"cartodb_id":814,"created_at":"2013-08-28T21:49:43Z","updated_at":"2013-08-28T21:49:43Z"},"geometry":{"type":"Point","coordinates":[-58.368043,-34.665977]}},{"type":"Feature","properties":{"id":151,"mesa_desde":23,"mesa_hasta":27,"cant_mesas":"5","establecim":"ESCUELA ET N°8","direccion":"LAVALLE 43","dne_seccion":4,"dne_distri":2,"circuito":"00023","electores":1751,"votantes":1357,"positivos":1309,"total_parcodigo":463,"vot_parcodigo":510,"cartodb_id":815,"created_at":"2013-08-28T21:49:43Z","updated_at":"2013-08-28T21:49:43Z"},"geometry":{"type":"Point","coordinates":[-58.366355,-34.662605]}},{"type":"Feature","properties":{"id":152,"mesa_desde":53,"mesa_hasta":64,"cant_mesas":"12","establecim":"ESCUELA EP N°1","direccion":"AV.BME.MITRE 750","dne_seccion":4,"dne_distri":2,"circuito":"00024","electores":4201,"votantes":3327,"positivos":3133,"total_parcodigo":1083,"vot_parcodigo":510,"cartodb_id":816,"created_at":"2013-08-28T21:49:43Z","updated_at":"2013-08-28T21:49:43Z"},"geometry":{"type":"Point","coordinates":[-58.364718,-34.662358]}},{"type":"Feature","properties":{"id":153,"mesa_desde":65,"mesa_hasta":69,"cant_mesas":"5","establecim":"ESCUELA EP N°13","direccion":"25 DE MAYO 371","dne_seccion":4,"dne_distri":2,"circuito":"00024","electores":1483,"votantes":1152,"positivos":1095,"total_parcodigo":411,"vot_parcodigo":510,"cartodb_id":817,"created_at":"2013-08-28T21:49:43Z","updated_at":"2013-08-28T21:49:43Z"},"geometry":{"type":"Point","coordinates":[-58.362902,-34.659419]}},{"type":"Feature","properties":{"id":154,"mesa_desde":41,"mesa_hasta":47,"cant_mesas":"7","establecim":"ESCUELA ET N°7","direccion":"ING.MARCONI 745","dne_seccion":4,"dne_distri":2,"circuito":"00024","electores":2454,"votantes":1944,"positivos":1889,"total_parcodigo":676,"vot_parcodigo":510,"cartodb_id":818,"created_at":"2013-08-28T21:49:43Z","updated_at":"2013-08-28T21:49:43Z"},"geometry":{"type":"Point","coordinates":[-58.364176,-34.661673]}},{"type":"Feature","properties":{"id":155,"mesa_desde":48,"mesa_hasta":52,"cant_mesas":"5","establecim":"UNIVERSIDAD TECNOLOGICA","direccion":"AV.BME.MITRE 750-2°PISO","dne_seccion":4,"dne_distri":2,"circuito":"00024","electores":1750,"votantes":1350,"positivos":1300,"total_parcodigo":470,"vot_parcodigo":510,"cartodb_id":819,"created_at":"2013-08-28T21:49:43Z","updated_at":"2013-08-28T21:49:43Z"},"geometry":{"type":"Point","coordinates":[-58.364668,-34.66242]}},{"type":"Feature","properties":{"id":156,"mesa_desde":85,"mesa_hasta":86,"cant_mesas":"2","establecim":"CLUB ARGENTINOS DE AVELLANEDA","direccion":"RICARDO GUTIERREZ 1661","dne_seccion":4,"dne_distri":2,"circuito":"00025","electores":699,"votantes":552,"positivos":526,"total_parcodigo":194,"vot_parcodigo":501,"cartodb_id":820,"created_at":"2013-08-28T21:49:43Z","updated_at":"2013-08-28T21:49:43Z"},"geometry":{"type":"Point","coordinates":[-58.350492,-34.664143]}},{"type":"Feature","properties":{"id":157,"mesa_desde":87,"mesa_hasta":92,"cant_mesas":"6","establecim":"COLEGIO PARROQ.SANTA TERESITA","direccion":"RICARDO GUTIERREZ 1170","dne_seccion":4,"dne_distri":2,"circuito":"00025","electores":2105,"votantes":1609,"positivos":1533,"total_parcodigo":584,"vot_parcodigo":510,"cartodb_id":821,"created_at":"2013-08-28T21:49:43Z","updated_at":"2013-08-28T21:49:43Z"},"geometry":{"type":"Point","coordinates":[-58.353753,-34.659499]}},{"type":"Feature","properties":{"id":158,"mesa_desde":70,"mesa_hasta":78,"cant_mesas":"9","establecim":"ESCUELA EP N°25","direccion":"SUAREZ 148","dne_seccion":4,"dne_distri":2,"circuito":"00025","electores":3150,"votantes":2414,"positivos":2304,"total_parcodigo":821,"vot_parcodigo":501,"cartodb_id":822,"created_at":"2013-08-28T21:49:43Z","updated_at":"2013-08-28T21:49:43Z"},"geometry":{"type":"Point","coordinates":[-58.355796,-34.66518]}},{"type":"Feature","properties":{"id":159,"mesa_desde":79,"mesa_hasta":84,"cant_mesas":"6","establecim":"ESCUELA EP N°31","direccion":"LAMADRID 665","dne_seccion":4,"dne_distri":2,"circuito":"00025","electores":2108,"votantes":1362,"positivos":1579,"total_parcodigo":574,"vot_parcodigo":510,"cartodb_id":823,"created_at":"2013-08-28T21:49:43Z","updated_at":"2013-08-28T21:49:43Z"},"geometry":{"type":"Point","coordinates":[-58.352828,-34.6598]}},{"type":"Feature","properties":{"id":160,"mesa_desde":93,"mesa_hasta":96,"cant_mesas":"4","establecim":"ESCUELA ES N°43","direccion":"OLAVARRIA 248","dne_seccion":4,"dne_distri":2,"circuito":"00025","electores":1402,"votantes":1074,"positivos":1038,"total_parcodigo":381,"vot_parcodigo":510,"cartodb_id":824,"created_at":"2013-08-28T21:49:43Z","updated_at":"2013-08-28T21:49:43Z"},"geometry":{"type":"Point","coordinates":[-58.34264,-34.65027]}},{"type":"Feature","properties":{"id":161,"mesa_desde":100,"mesa_hasta":101,"cant_mesas":"2","establecim":"JARDIN DE INFANTES DON ORIONE","direccion":"M.ESTEVEZ 688","dne_seccion":4,"dne_distri":2,"circuito":"00025","electores":401,"votantes":307,"positivos":289,"total_parcodigo":119,"vot_parcodigo":510,"cartodb_id":825,"created_at":"2013-08-28T21:49:43Z","updated_at":"2013-08-28T21:49:43Z"},"geometry":{"type":"Point","coordinates":[-58.36448,-34.653203]}},{"type":"Feature","properties":{"id":162,"mesa_desde":97,"mesa_hasta":99,"cant_mesas":"3","establecim":"SOC.DE FOMENTO CRUCESITA ESTE","direccion":"RICARDO GUTIERREZ 1374","dne_seccion":4,"dne_distri":2,"circuito":"00025","electores":1050,"votantes":809,"positivos":772,"total_parcodigo":289,"vot_parcodigo":510,"cartodb_id":826,"created_at":"2013-08-28T21:49:43Z","updated_at":"2013-08-28T21:49:43Z"},"geometry":{"type":"Point","coordinates":[-58.352509,-34.661708]}},{"type":"Feature","properties":{"id":163,"mesa_desde":106,"mesa_hasta":113,"cant_mesas":"8","establecim":"ESCUELA EP N°6/ES N°18","direccion":"VIEYTES 1590","dne_seccion":4,"dne_distri":2,"circuito":"00026","electores":2812,"votantes":1844,"positivos":1967,"total_parcodigo":1173,"vot_parcodigo":501,"cartodb_id":827,"created_at":"2013-08-28T21:49:43Z","updated_at":"2013-08-28T21:49:43Z"},"geometry":{"type":"Point","coordinates":[-58.351825,-34.642001]}},{"type":"Feature","properties":{"id":164,"mesa_desde":102,"mesa_hasta":105,"cant_mesas":"4","establecim":"JARD.DE INF.MUNICIPAL N°25","direccion":"M.ESTEVEZ 1120","dne_seccion":4,"dne_distri":2,"circuito":"00026","electores":1409,"votantes":767,"positivos":756,"total_parcodigo":511,"vot_parcodigo":501,"cartodb_id":828,"created_at":"2013-08-28T21:49:43Z","updated_at":"2013-08-28T21:49:43Z"},"geometry":{"type":"Point","coordinates":[-58.360152,-34.651984]}},{"type":"Feature","properties":{"id":165,"mesa_desde":114,"mesa_hasta":115,"cant_mesas":"2","establecim":"JARD.DE INF.MUNICIPAL N°3","direccion":"ESPEJO 1411","dne_seccion":4,"dne_distri":2,"circuito":"00026","electores":415,"votantes":318,"positivos":298,"total_parcodigo":163,"vot_parcodigo":501,"cartodb_id":829,"created_at":"2013-08-28T21:49:43Z","updated_at":"2013-08-28T21:49:43Z"},"geometry":{"type":"Point","coordinates":[-58.35458,-34.641127]}},{"type":"Feature","properties":{"id":166,"mesa_desde":152,"mesa_hasta":157,"cant_mesas":"6","establecim":"COLEGIO CRISTO REY","direccion":"25 DE MAYO 1262","dne_seccion":4,"dne_distri":2,"circuito":"00027","electores":2109,"votantes":1336,"positivos":1524,"total_parcodigo":642,"vot_parcodigo":501,"cartodb_id":830,"created_at":"2013-08-28T21:49:43Z","updated_at":"2013-08-28T21:49:43Z"},"geometry":{"type":"Point","coordinates":[-58.346966,-34.654055]}},{"type":"Feature","properties":{"id":167,"mesa_desde":141,"mesa_hasta":147,"cant_mesas":"7","establecim":"COLEGIO SAGRADO CORAZON","direccion":"NICOLAS AVELLANEDA 1240","dne_seccion":4,"dne_distri":2,"circuito":"00027","electores":2451,"votantes":1913,"positivos":1810,"total_parcodigo":736,"vot_parcodigo":501,"cartodb_id":831,"created_at":"2013-08-28T21:49:43Z","updated_at":"2013-08-28T21:49:43Z"},"geometry":{"type":"Point","coordinates":[-58.347498,-34.64893]}},{"type":"Feature","properties":{"id":168,"mesa_desde":165,"mesa_hasta":170,"cant_mesas":"6","establecim":"ESCUELA EP N°33/ES N°46","direccion":"ING.HUERGO 1534","dne_seccion":4,"dne_distri":2,"circuito":"00027","electores":2101,"votantes":1636,"positivos":1558,"total_parcodigo":615,"vot_parcodigo":501,"cartodb_id":832,"created_at":"2013-08-28T21:49:43Z","updated_at":"2013-08-28T21:49:43Z"},"geometry":{"type":"Point","coordinates":[-58.343108,-34.655233]}},{"type":"Feature","properties":{"id":169,"mesa_desde":122,"mesa_hasta":134,"cant_mesas":"13","establecim":"ESCUELA EP N°35/ES N°28","direccion":"DE BENEDETTI 1338","dne_seccion":4,"dne_distri":2,"circuito":"00027","electores":4556,"votantes":3282,"positivos":3339,"total_parcodigo":1513,"vot_parcodigo":501,"cartodb_id":833,"created_at":"2013-08-28T21:49:43Z","updated_at":"2013-08-28T21:49:43Z"},"geometry":{"type":"Point","coordinates":[-58.343742,-34.650258]}},{"type":"Feature","properties":{"id":170,"mesa_desde":135,"mesa_hasta":140,"cant_mesas":"6","establecim":"ESCUELA EP N°67","direccion":"CANALEJAS 2053","dne_seccion":4,"dne_distri":2,"circuito":"00027","electores":2104,"votantes":1597,"positivos":1505,"total_parcodigo":666,"vot_parcodigo":501,"cartodb_id":834,"created_at":"2013-08-28T21:49:43Z","updated_at":"2013-08-28T21:49:43Z"},"geometry":{"type":"Point","coordinates":[-58.331365,-34.658936]}},{"type":"Feature","properties":{"id":171,"mesa_desde":158,"mesa_hasta":164,"cant_mesas":"7","establecim":"ESCUELA EP N°9/ES N°45","direccion":"M.ESTEVEZ 1000","dne_seccion":4,"dne_distri":2,"circuito":"00027","electores":2451,"votantes":1641,"positivos":1839,"total_parcodigo":763,"vot_parcodigo":501,"cartodb_id":835,"created_at":"2013-08-28T21:49:43Z","updated_at":"2013-08-28T21:49:43Z"},"geometry":{"type":"Point","coordinates":[-58.34946,-34.650737]}},{"type":"Feature","properties":{"id":172,"mesa_desde":171,"mesa_hasta":174,"cant_mesas":"4","establecim":"ESCUELA ES N°20","direccion":"GENOVA Y MORSE S/N°","dne_seccion":4,"dne_distri":2,"circuito":"00027","electores":1323,"votantes":990,"positivos":935,"total_parcodigo":377,"vot_parcodigo":501,"cartodb_id":836,"created_at":"2013-08-28T21:49:43Z","updated_at":"2013-08-28T21:49:43Z"},"geometry":{"type":"Point","coordinates":[-58.342772,-34.68502]}},{"type":"Feature","properties":{"id":173,"mesa_desde":116,"mesa_hasta":121,"cant_mesas":"6","establecim":"ESCUELA ET N°1","direccion":"L.N.ALEM 1910 ESQ.VERTIZ","dne_seccion":4,"dne_distri":2,"circuito":"00027","electores":2108,"votantes":1393,"positivos":1580,"total_parcodigo":696,"vot_parcodigo":501,"cartodb_id":837,"created_at":"2013-08-28T21:49:43Z","updated_at":"2013-08-28T21:49:43Z"},"geometry":{"type":"Point","coordinates":[-58.346234,-34.656735]}},{"type":"Feature","properties":{"id":174,"mesa_desde":148,"mesa_hasta":151,"cant_mesas":"4","establecim":"ESCUELA EVANGELICA METODISTA","direccion":"GONGORA 1014","dne_seccion":4,"dne_distri":2,"circuito":"00027","electores":1402,"votantes":1093,"positivos":1041,"total_parcodigo":424,"vot_parcodigo":501,"cartodb_id":838,"created_at":"2013-08-28T21:49:43Z","updated_at":"2013-08-28T21:49:43Z"},"geometry":{"type":"Point","coordinates":[-58.349151,-34.657503]}},{"type":"Feature","properties":{"id":175,"mesa_desde":188,"mesa_hasta":192,"cant_mesas":"5","establecim":"ESCUELA EP N°14","direccion":"ALDECOA 821","dne_seccion":4,"dne_distri":2,"circuito":"00030","electores":1605,"votantes":1259,"positivos":1220,"total_parcodigo":485,"vot_parcodigo":510,"cartodb_id":839,"created_at":"2013-08-28T21:49:43Z","updated_at":"2013-08-28T21:49:43Z"},"geometry":{"type":"Point","coordinates":[-58.382842,-34.663881]}},{"type":"Feature","properties":{"id":176,"mesa_desde":180,"mesa_hasta":187,"cant_mesas":"8","establecim":"ESCUELA ES N°6","direccion":"GIRIBONE 648","dne_seccion":4,"dne_distri":2,"circuito":"00030","electores":2798,"votantes":1913,"positivos":2094,"total_parcodigo":761,"vot_parcodigo":510,"cartodb_id":840,"created_at":"2013-08-28T21:49:43Z","updated_at":"2013-08-28T21:49:43Z"},"geometry":{"type":"Point","coordinates":[-58.379335,-34.663242]}},{"type":"Feature","properties":{"id":177,"mesa_desde":175,"mesa_hasta":179,"cant_mesas":"5","establecim":"ESCUELA ESPECIAL N°502","direccion":"LEBENSHON 965","dne_seccion":4,"dne_distri":2,"circuito":"00030","electores":1745,"votantes":1332,"positivos":1292,"total_parcodigo":505,"vot_parcodigo":510,"cartodb_id":841,"created_at":"2013-08-28T21:49:43Z","updated_at":"2013-08-28T21:49:43Z"},"geometry":{"type":"Point","coordinates":[-58.381876,-34.66645]}},{"type":"Feature","properties":{"id":178,"mesa_desde":193,"mesa_hasta":196,"cant_mesas":"4","establecim":"ESCUELA EP N°2","direccion":"MEJICO 862 ESQ.GUIFRA","dne_seccion":4,"dne_distri":2,"circuito":"00031","electores":1330,"votantes":1057,"positivos":1018,"total_parcodigo":405,"vot_parcodigo":510,"cartodb_id":842,"created_at":"2013-08-28T21:49:43Z","updated_at":"2013-08-28T21:49:43Z"},"geometry":{"type":"Point","coordinates":[-58.391406,-34.668528]}},{"type":"Feature","properties":{"id":179,"mesa_desde":197,"mesa_hasta":202,"cant_mesas":"6","establecim":"ESCUELA EP N°53","direccion":"PASO DE LA PATRIA 1830","dne_seccion":4,"dne_distri":2,"circuito":"00032","electores":2102,"votantes":1652,"positivos":1596,"total_parcodigo":618,"vot_parcodigo":510,"cartodb_id":843,"created_at":"2013-08-28T21:49:43Z","updated_at":"2013-08-28T21:49:43Z"},"geometry":{"type":"Point","coordinates":[-58.397081,-34.668653]}},{"type":"Feature","properties":{"id":180,"mesa_desde":203,"mesa_hasta":208,"cant_mesas":"6","establecim":"ESCUELA ET N°9","direccion":"RIVADAVIA 1069","dne_seccion":4,"dne_distri":2,"circuito":"00032","electores":1996,"votantes":1612,"positivos":1539,"total_parcodigo":626,"vot_parcodigo":510,"cartodb_id":844,"created_at":"2013-08-28T21:49:43Z","updated_at":"2013-08-28T21:49:43Z"},"geometry":{"type":"Point","coordinates":[-58.393388,-34.671004]}},{"type":"Feature","properties":{"id":181,"mesa_desde":209,"mesa_hasta":217,"cant_mesas":"9","establecim":"ESCUELA EP N°17/ES N°22","direccion":"CHILE 159","dne_seccion":4,"dne_distri":2,"circuito":"00033","electores":3144,"votantes":2454,"positivos":2394,"total_parcodigo":982,"vot_parcodigo":510,"cartodb_id":845,"created_at":"2013-08-28T21:49:43Z","updated_at":"2013-08-28T21:49:43Z"},"geometry":{"type":"Point","coordinates":[-58.386283,-34.679068]}},{"type":"Feature","properties":{"id":182,"mesa_desde":225,"mesa_hasta":233,"cant_mesas":"9","establecim":"ESCUELA EP N°28/ES N°9","direccion":"AV.PAVON 1539","dne_seccion":4,"dne_distri":2,"circuito":"00033","electores":3154,"votantes":2464,"positivos":2379,"total_parcodigo":892,"vot_parcodigo":510,"cartodb_id":846,"created_at":"2013-08-28T21:49:43Z","updated_at":"2013-08-28T21:49:43Z"},"geometry":{"type":"Point","coordinates":[-58.382588,-34.674875]}},{"type":"Feature","properties":{"id":183,"mesa_desde":218,"mesa_hasta":224,"cant_mesas":"7","establecim":"ESCUELA EP N°41/ES N°11","direccion":"AV.GALICIA 467","dne_seccion":4,"dne_distri":2,"circuito":"00033","electores":2455,"votantes":1906,"positivos":1820,"total_parcodigo":722,"vot_parcodigo":510,"cartodb_id":847,"created_at":"2013-08-28T21:49:43Z","updated_at":"2013-08-28T21:49:43Z"},"geometry":{"type":"Point","coordinates":[-58.387013,-34.67328]}},{"type":"Feature","properties":{"id":184,"mesa_desde":239,"mesa_hasta":243,"cant_mesas":"5","establecim":"ESCUELA ES N°5","direccion":"AV.GALICIA 467","dne_seccion":4,"dne_distri":2,"circuito":"00033","electores":1500,"votantes":1138,"positivos":1102,"total_parcodigo":458,"vot_parcodigo":510,"cartodb_id":848,"created_at":"2013-08-28T21:49:43Z","updated_at":"2013-08-28T21:49:43Z"},"geometry":{"type":"Point","coordinates":[-58.38688,-34.673376]}},{"type":"Feature","properties":{"id":185,"mesa_desde":234,"mesa_hasta":238,"cant_mesas":"5","establecim":"INST.BEATA M.ANA DE JESUS","direccion":"CABILDO 285","dne_seccion":4,"dne_distri":2,"circuito":"00033","electores":1749,"votantes":1335,"positivos":1299,"total_parcodigo":530,"vot_parcodigo":510,"cartodb_id":849,"created_at":"2013-08-28T21:49:43Z","updated_at":"2013-08-28T21:49:43Z"},"geometry":{"type":"Point","coordinates":[-58.388545,-34.678865]}},{"type":"Feature","properties":{"id":186,"mesa_desde":300,"mesa_hasta":303,"cant_mesas":"4","establecim":"ESCUELA EP N°24/ES N°26","direccion":"BASAVILVASO 1612","dne_seccion":4,"dne_distri":2,"circuito":"00034","electores":1198,"votantes":941,"positivos":907,"total_parcodigo":348,"vot_parcodigo":510,"cartodb_id":850,"created_at":"2013-08-28T21:49:43Z","updated_at":"2013-08-28T21:49:43Z"},"geometry":{"type":"Point","coordinates":[-58.365543,-34.691875]}},{"type":"Feature","properties":{"id":187,"mesa_desde":256,"mesa_hasta":266,"cant_mesas":"11","establecim":"ESCUELA EP N°37/ES N°30","direccion":"LACARRA 1530","dne_seccion":4,"dne_distri":2,"circuito":"00034","electores":3848,"votantes":3125,"positivos":3005,"total_parcodigo":1170,"vot_parcodigo":510,"cartodb_id":851,"created_at":"2013-08-28T21:49:43Z","updated_at":"2013-08-28T21:49:43Z"},"geometry":{"type":"Point","coordinates":[-58.372675,-34.684112]}},{"type":"Feature","properties":{"id":188,"mesa_desde":267,"mesa_hasta":273,"cant_mesas":"7","establecim":"ESCUELA EP N°40","direccion":"CAMPICHUELO 765","dne_seccion":4,"dne_distri":2,"circuito":"00034","electores":2454,"votantes":1659,"positivos":1870,"total_parcodigo":749,"vot_parcodigo":510,"cartodb_id":852,"created_at":"2013-08-28T21:49:43Z","updated_at":"2013-08-28T21:49:43Z"},"geometry":{"type":"Point","coordinates":[-58.376204,-34.687488]}},{"type":"Feature","properties":{"id":189,"mesa_desde":274,"mesa_hasta":286,"cant_mesas":"13","establecim":"ESCUELA EP N°45/ES N°12","direccion":"CNO.GRAL.BELGRANO 1030","dne_seccion":4,"dne_distri":2,"circuito":"00034","electores":4548,"votantes":3614,"positivos":3484,"total_parcodigo":1377,"vot_parcodigo":510,"cartodb_id":854,"created_at":"2013-08-28T21:49:43Z","updated_at":"2013-08-28T21:49:43Z"},"geometry":{"type":"Point","coordinates":[-58.374272,-34.69127]}},{"type":"Feature","properties":{"id":190,"mesa_desde":287,"mesa_hasta":297,"cant_mesas":"11","establecim":"ESCUELA EP N°60","direccion":"HEREDIA 961","dne_seccion":4,"dne_distri":2,"circuito":"00034","electores":3850,"votantes":3103,"positivos":2981,"total_parcodigo":1215,"vot_parcodigo":510,"cartodb_id":855,"created_at":"2013-08-28T21:49:43Z","updated_at":"2013-08-28T21:49:43Z"},"geometry":{"type":"Point","coordinates":[-58.373289,-34.679856]}},{"type":"Feature","properties":{"id":191,"mesa_desde":244,"mesa_hasta":255,"cant_mesas":"12","establecim":"ESCUELA ES N°4","direccion":"DONOVAN 1470","dne_seccion":4,"dne_distri":2,"circuito":"00034","electores":4209,"votantes":3088,"positivos":3143,"total_parcodigo":1308,"vot_parcodigo":510,"cartodb_id":856,"created_at":"2013-08-28T21:49:43Z","updated_at":"2013-08-28T21:49:43Z"},"geometry":{"type":"Point","coordinates":[-58.368854,-34.684968]}},{"type":"Feature","properties":{"id":192,"mesa_desde":298,"mesa_hasta":299,"cant_mesas":"2","establecim":"INSTITUTO CENTENARIO DON BOSCO","direccion":"SALTA 1515","dne_seccion":4,"dne_distri":2,"circuito":"00034","electores":700,"votantes":564,"positivos":543,"total_parcodigo":216,"vot_parcodigo":510,"cartodb_id":857,"created_at":"2013-08-28T21:49:43Z","updated_at":"2013-08-28T21:49:43Z"},"geometry":{"type":"Point","coordinates":[-58.362335,-34.690381]}},{"type":"Feature","properties":{"id":193,"mesa_desde":350,"mesa_hasta":351,"cant_mesas":"2","establecim":"CIRCULO FRIULANO","direccion":"AV.MITRE 2154","dne_seccion":4,"dne_distri":2,"circuito":"00037","electores":701,"votantes":565,"positivos":539,"total_parcodigo":207,"vot_parcodigo":510,"cartodb_id":858,"created_at":"2013-08-28T21:49:43Z","updated_at":"2013-08-28T21:49:43Z"},"geometry":{"type":"Point","coordinates":[-58.353064,-34.671685]}},{"type":"Feature","properties":{"id":194,"mesa_desde":304,"mesa_hasta":307,"cant_mesas":"4","establecim":"CLUB CRAMER","direccion":"CHENAUT 138","dne_seccion":4,"dne_distri":2,"circuito":"00037","electores":1404,"votantes":1119,"positivos":1063,"total_parcodigo":380,"vot_parcodigo":510,"cartodb_id":859,"created_at":"2013-08-28T21:49:43Z","updated_at":"2013-08-28T21:49:43Z"},"geometry":{"type":"Point","coordinates":[-58.343644,-34.680685]}},{"type":"Feature","properties":{"id":195,"mesa_desde":348,"mesa_hasta":349,"cant_mesas":"2","establecim":"CLUB SOC.Y DEP.VA.BERNASCONI","direccion":"SALTO 63","dne_seccion":4,"dne_distri":2,"circuito":"00037","electores":700,"votantes":553,"positivos":533,"total_parcodigo":213,"vot_parcodigo":510,"cartodb_id":860,"created_at":"2013-08-28T21:49:43Z","updated_at":"2013-08-28T21:49:43Z"},"geometry":{"type":"Point","coordinates":[-58.339452,-34.685724]}},{"type":"Feature","properties":{"id":196,"mesa_desde":308,"mesa_hasta":311,"cant_mesas":"4","establecim":"COLEGIO SAINT EXUPERY","direccion":"IBERA 168","dne_seccion":4,"dne_distri":2,"circuito":"00037","electores":1403,"votantes":1126,"positivos":1041,"total_parcodigo":381,"vot_parcodigo":510,"cartodb_id":861,"created_at":"2013-08-28T21:49:43Z","updated_at":"2013-08-28T21:49:43Z"},"geometry":{"type":"Point","coordinates":[-58.349654,-34.671859]}},{"type":"Feature","properties":{"id":197,"mesa_desde":340,"mesa_hasta":347,"cant_mesas":"8","establecim":"COLEGIO SAN PATRICIO","direccion":"ZEBALLOS 2315","dne_seccion":4,"dne_distri":2,"circuito":"00037","electores":2804,"votantes":2255,"positivos":2159,"total_parcodigo":870,"vot_parcodigo":510,"cartodb_id":862,"created_at":"2013-08-28T21:49:43Z","updated_at":"2013-08-28T21:49:43Z"},"geometry":{"type":"Point","coordinates":[-58.349397,-34.672985]}},{"type":"Feature","properties":{"id":198,"mesa_desde":312,"mesa_hasta":320,"cant_mesas":"9","establecim":"ESCUELA COOP.ISLA MACIEL","direccion":"GENOVA E/CUCHA CUCHA Y  ESCALADA","dne_seccion":4,"dne_distri":2,"circuito":"00037","electores":3153,"votantes":2483,"positivos":2359,"total_parcodigo":852,"vot_parcodigo":510,"cartodb_id":863,"created_at":"2013-08-28T21:49:43Z","updated_at":"2013-08-28T21:49:43Z"},"geometry":{"type":"Point","coordinates":[-58.338094,-34.675615]}},{"type":"Feature","properties":{"id":199,"mesa_desde":321,"mesa_hasta":339,"cant_mesas":"19","establecim":"ESCUELA EP N°18/ES N°7","direccion":"AV.MITRE 2550","dne_seccion":4,"dne_distri":2,"circuito":"00037","electores":6660,"votantes":5290,"positivos":5069,"total_parcodigo":1925,"vot_parcodigo":510,"cartodb_id":864,"created_at":"2013-08-28T21:49:43Z","updated_at":"2013-08-28T21:49:43Z"},"geometry":{"type":"Point","coordinates":[-58.348589,-34.675482]}},{"type":"Feature","properties":{"id":200,"mesa_desde":355,"mesa_hasta":357,"cant_mesas":"3","establecim":"INST. SUPERIOR DOCENTE","direccion":"ROCA 1632","dne_seccion":4,"dne_distri":2,"circuito":"00037","electores":861,"votantes":693,"positivos":656,"total_parcodigo":255,"vot_parcodigo":510,"cartodb_id":865,"created_at":"2013-08-28T21:49:43Z","updated_at":"2013-08-28T21:49:43Z"},"geometry":{"type":"Point","coordinates":[-58.352653,-34.665391]}},{"type":"Feature","properties":{"id":201,"mesa_desde":352,"mesa_hasta":354,"cant_mesas":"3","establecim":"JARDIN DE INFANTES N°906","direccion":"IGUAZU 401","dne_seccion":4,"dne_distri":2,"circuito":"00037","electores":1051,"votantes":840,"positivos":757,"total_parcodigo":246,"vot_parcodigo":501,"cartodb_id":866,"created_at":"2013-08-28T21:49:43Z","updated_at":"2013-08-28T21:49:43Z"},"geometry":{"type":"Point","coordinates":[-58.347618,-34.669041]}},{"type":"Feature","properties":{"id":202,"mesa_desde":443,"mesa_hasta":450,"cant_mesas":"8","establecim":"COLEGIO ENRIQUE RIOPEDRE","direccion":"AV.BELGRANO 3776","dne_seccion":4,"dne_distri":2,"circuito":"00038","electores":2806,"votantes":2217,"positivos":2060,"total_parcodigo":704,"vot_parcodigo":510,"cartodb_id":867,"created_at":"2013-08-28T21:49:43Z","updated_at":"2013-08-28T21:49:43Z"},"geometry":{"type":"Point","coordinates":[-58.341788,-34.688261]}},{"type":"Feature","properties":{"id":203,"mesa_desde":361,"mesa_hasta":377,"cant_mesas":"17","establecim":"ESCUELA EP N°10/ES N°39","direccion":"AV.MITRE 2985","dne_seccion":4,"dne_distri":2,"circuito":"00038","electores":5957,"votantes":4729,"positivos":4568,"total_parcodigo":1633,"vot_parcodigo":510,"cartodb_id":868,"created_at":"2013-08-28T21:49:43Z","updated_at":"2013-08-28T21:49:43Z"},"geometry":{"type":"Point","coordinates":[-58.345568,-34.680734]}},{"type":"Feature","properties":{"id":204,"mesa_desde":407,"mesa_hasta":415,"cant_mesas":"9","establecim":"ESCUELA EP N°15/ES N°40","direccion":"MAGAN 981","dne_seccion":4,"dne_distri":2,"circuito":"00038","electores":3152,"votantes":2488,"positivos":2402,"total_parcodigo":860,"vot_parcodigo":510,"cartodb_id":869,"created_at":"2013-08-28T21:49:43Z","updated_at":"2013-08-28T21:49:43Z"},"geometry":{"type":"Point","coordinates":[-58.355392,-34.688433]}},{"type":"Feature","properties":{"id":205,"mesa_desde":451,"mesa_hasta":461,"cant_mesas":"11","establecim":"ESCUELA EP N°22/ES N°8","direccion":"AV.MITRE 2125 Y OBLIGADO","dne_seccion":4,"dne_distri":2,"circuito":"00038","electores":3773,"votantes":2699,"positivos":2863,"total_parcodigo":1063,"vot_parcodigo":510,"cartodb_id":870,"created_at":"2013-08-28T21:49:43Z","updated_at":"2013-08-28T21:49:43Z"},"geometry":{"type":"Point","coordinates":[-58.353187,-34.67161]}},{"type":"Feature","properties":{"id":206,"mesa_desde":384,"mesa_hasta":393,"cant_mesas":"10","establecim":"ESCUELA EP N°23/ES N°25","direccion":"ACHA Y PITAGORAS","dne_seccion":4,"dne_distri":2,"circuito":"00038","electores":3504,"votantes":2826,"positivos":2727,"total_parcodigo":941,"vot_parcodigo":510,"cartodb_id":871,"created_at":"2013-08-28T21:49:43Z","updated_at":"2013-08-28T21:49:43Z"},"geometry":{"type":"Point","coordinates":[-58.359178,-34.69448]}},{"type":"Feature","properties":{"id":207,"mesa_desde":394,"mesa_hasta":406,"cant_mesas":"13","establecim":"ESCUELA EP N°36/ES N°29","direccion":"AV.MITRE 3695","dne_seccion":4,"dne_distri":2,"circuito":"00038","electores":4555,"votantes":3353,"positivos":3493,"total_parcodigo":1250,"vot_parcodigo":510,"cartodb_id":872,"created_at":"2013-08-28T21:49:43Z","updated_at":"2013-08-28T21:49:43Z"},"geometry":{"type":"Point","coordinates":[-58.340744,-34.686481]}},{"type":"Feature","properties":{"id":208,"mesa_desde":419,"mesa_hasta":433,"cant_mesas":"15","establecim":"ESCUELA ES N°11","direccion":"AV.MITRE 3073","dne_seccion":4,"dne_distri":2,"circuito":"00038","electores":5255,"votantes":4199,"positivos":3985,"total_parcodigo":1425,"vot_parcodigo":510,"cartodb_id":873,"created_at":"2013-08-28T21:49:43Z","updated_at":"2013-08-28T21:49:43Z"},"geometry":{"type":"Point","coordinates":[-58.345436,-34.680978]}},{"type":"Feature","properties":{"id":209,"mesa_desde":434,"mesa_hasta":442,"cant_mesas":"9","establecim":"ESCUELA ET N°4","direccion":"LAMBARE 645 Y OCAMPO","dne_seccion":4,"dne_distri":2,"circuito":"00038","electores":3157,"votantes":1915,"positivos":2361,"total_parcodigo":822,"vot_parcodigo":510,"cartodb_id":874,"created_at":"2013-08-28T21:49:43Z","updated_at":"2013-08-28T21:49:43Z"},"geometry":{"type":"Point","coordinates":[-58.360807,-34.674506]}},{"type":"Feature","properties":{"id":210,"mesa_desde":416,"mesa_hasta":418,"cant_mesas":"3","establecim":"ESCUELA SANTO TOMAS","direccion":"BELGRANO 2695 ESQ.SALTA","dne_seccion":4,"dne_distri":2,"circuito":"00038","electores":1050,"votantes":835,"positivos":797,"total_parcodigo":317,"vot_parcodigo":510,"cartodb_id":875,"created_at":"2013-08-28T21:49:43Z","updated_at":"2013-08-28T21:49:43Z"},"geometry":{"type":"Point","coordinates":[-58.351164,-34.68094]}},{"type":"Feature","properties":{"id":211,"mesa_desde":378,"mesa_hasta":383,"cant_mesas":"6","establecim":"INST.NTRA.SEÑORA DE LORETO","direccion":"BRANDSEN 3785","dne_seccion":4,"dne_distri":2,"circuito":"00038","electores":2099,"votantes":1648,"positivos":1588,"total_parcodigo":591,"vot_parcodigo":510,"cartodb_id":876,"created_at":"2013-08-28T21:49:43Z","updated_at":"2013-08-28T21:49:43Z"},"geometry":{"type":"Point","coordinates":[-58.340633,-34.687714]}},{"type":"Feature","properties":{"id":212,"mesa_desde":358,"mesa_hasta":360,"cant_mesas":"3","establecim":"INSTITUTO ATLETICO CULTURAL","direccion":"BELGRANO 3470","dne_seccion":4,"dne_distri":2,"circuito":"00038","electores":1048,"votantes":834,"positivos":805,"total_parcodigo":293,"vot_parcodigo":501,"cartodb_id":877,"created_at":"2013-08-28T21:49:43Z","updated_at":"2013-08-28T21:49:43Z"},"geometry":{"type":"Point","coordinates":[-58.343968,-34.686718]}},{"type":"Feature","properties":{"id":213,"mesa_desde":547,"mesa_hasta":556,"cant_mesas":"10","establecim":"COLEGIO PARROQ.VICENTE SAURAS","direccion":"BRANDSEN 4970","dne_seccion":4,"dne_distri":2,"circuito":"00039","electores":3510,"votantes":2503,"positivos":2490,"total_parcodigo":847,"vot_parcodigo":510,"cartodb_id":878,"created_at":"2013-08-28T21:49:43Z","updated_at":"2013-08-28T21:49:43Z"},"geometry":{"type":"Point","coordinates":[-58.33095,-34.695656]}},{"type":"Feature","properties":{"id":214,"mesa_desde":462,"mesa_hasta":479,"cant_mesas":"18","establecim":"ESCUELA EP N°16","direccion":"COMODORO RIVADAVIA 4455","dne_seccion":4,"dne_distri":2,"circuito":"00039","electores":6302,"votantes":5017,"positivos":4717,"total_parcodigo":1820,"vot_parcodigo":501,"cartodb_id":879,"created_at":"2013-08-28T21:49:43Z","updated_at":"2013-08-28T21:49:43Z"},"geometry":{"type":"Point","coordinates":[-58.337575,-34.693995]}},{"type":"Feature","properties":{"id":215,"mesa_desde":502,"mesa_hasta":510,"cant_mesas":"9","establecim":"ESCUELA EP N°27/ES N°27","direccion":"CHASCOMUS 975","dne_seccion":4,"dne_distri":2,"circuito":"00039","electores":3153,"votantes":2533,"positivos":2405,"total_parcodigo":924,"vot_parcodigo":501,"cartodb_id":880,"created_at":"2013-08-28T21:49:43Z","updated_at":"2013-08-28T21:49:43Z"},"geometry":{"type":"Point","coordinates":[-58.337497,-34.703144]}},{"type":"Feature","properties":{"id":216,"mesa_desde":567,"mesa_hasta":576,"cant_mesas":"10","establecim":"ESCUELA EP N°3/ES N°17","direccion":"ADROGUE 438","dne_seccion":4,"dne_distri":2,"circuito":"00039","electores":3500,"votantes":2772,"positivos":2627,"total_parcodigo":981,"vot_parcodigo":501,"cartodb_id":881,"created_at":"2013-08-28T21:49:43Z","updated_at":"2013-08-28T21:49:43Z"},"geometry":{"type":"Point","coordinates":[-58.324004,-34.691434]}},{"type":"Feature","properties":{"id":217,"mesa_desde":597,"mesa_hasta":606,"cant_mesas":"10","establecim":"ESCUELA EP N°32/ES N°10","direccion":"DE LA SERNA 4655","dne_seccion":4,"dne_distri":2,"circuito":"00039","electores":3310,"votantes":2643,"positivos":2509,"total_parcodigo":931,"vot_parcodigo":501,"cartodb_id":882,"created_at":"2013-08-28T21:49:43Z","updated_at":"2013-08-28T21:49:43Z"},"geometry":{"type":"Point","coordinates":[-58.348212,-34.704867]}},{"type":"Feature","properties":{"id":218,"mesa_desde":589,"mesa_hasta":596,"cant_mesas":"8","establecim":"ESCUELA EP N°57","direccion":"PASTEUR 1067","dne_seccion":4,"dne_distri":2,"circuito":"00039","electores":2806,"votantes":2240,"positivos":2148,"total_parcodigo":790,"vot_parcodigo":501,"cartodb_id":883,"created_at":"2013-08-28T21:49:43Z","updated_at":"2013-08-28T21:49:43Z"},"geometry":{"type":"Point","coordinates":[-58.350194,-34.69608]}},{"type":"Feature","properties":{"id":219,"mesa_desde":538,"mesa_hasta":546,"cant_mesas":"9","establecim":"ESCUELA EP N°58","direccion":"POSADAS E/HEREDIA Y  CASACUBERTA","dne_seccion":4,"dne_distri":2,"circuito":"00039","electores":3149,"votantes":2531,"positivos":2327,"total_parcodigo":948,"vot_parcodigo":501,"cartodb_id":884,"created_at":"2013-08-28T21:49:43Z","updated_at":"2013-08-28T21:49:43Z"},"geometry":{"type":"Point","coordinates":[-58.345013,-34.703195]}},{"type":"Feature","properties":{"id":220,"mesa_desde":577,"mesa_hasta":588,"cant_mesas":"12","establecim":"ESCUELA EP N°59/ES N°47","direccion":"PIERES 1250","dne_seccion":4,"dne_distri":2,"circuito":"00039","electores":4202,"votantes":3061,"positivos":3174,"total_parcodigo":1275,"vot_parcodigo":501,"cartodb_id":885,"created_at":"2013-08-28T21:49:43Z","updated_at":"2013-08-28T21:49:43Z"},"geometry":{"type":"Point","coordinates":[-58.341645,-34.702002]}},{"type":"Feature","properties":{"id":221,"mesa_desde":492,"mesa_hasta":501,"cant_mesas":"10","establecim":"ESCUELA EP N°61/ES N°2","direccion":"BVARD.DE LOS ITALIANOS 1463","dne_seccion":4,"dne_distri":2,"circuito":"00039","electores":3508,"votantes":2760,"positivos":2680,"total_parcodigo":986,"vot_parcodigo":501,"cartodb_id":886,"created_at":"2013-08-28T21:49:43Z","updated_at":"2013-08-28T21:49:43Z"},"geometry":{"type":"Point","coordinates":[-58.341934,-34.709818]}},{"type":"Feature","properties":{"id":222,"mesa_desde":511,"mesa_hasta":517,"cant_mesas":"7","establecim":"ESCUELA EP N°64/ES N°44","direccion":"ALTOLAGUIRRE 452","dne_seccion":4,"dne_distri":2,"circuito":"00039","electores":2452,"votantes":1996,"positivos":1902,"total_parcodigo":728,"vot_parcodigo":501,"cartodb_id":887,"created_at":"2013-08-28T21:49:43Z","updated_at":"2013-08-28T21:49:43Z"},"geometry":{"type":"Point","coordinates":[-58.328868,-34.687422]}},{"type":"Feature","properties":{"id":223,"mesa_desde":525,"mesa_hasta":537,"cant_mesas":"13","establecim":"ESCUELA EP N°66/ES N°36","direccion":"BELGRANO 4800","dne_seccion":4,"dne_distri":2,"circuito":"00039","electores":4554,"votantes":3681,"positivos":3344,"total_parcodigo":1263,"vot_parcodigo":510,"cartodb_id":888,"created_at":"2013-08-28T21:49:43Z","updated_at":"2013-08-28T21:49:43Z"},"geometry":{"type":"Point","coordinates":[-58.333338,-34.695176]}},{"type":"Feature","properties":{"id":224,"mesa_desde":480,"mesa_hasta":491,"cant_mesas":"12","establecim":"ESCUELA ES N°9","direccion":"RAMON FRANCO 5031","dne_seccion":4,"dne_distri":2,"circuito":"00039","electores":4208,"votantes":3409,"positivos":3237,"total_parcodigo":1170,"vot_parcodigo":501,"cartodb_id":889,"created_at":"2013-08-28T21:49:43Z","updated_at":"2013-08-28T21:49:43Z"},"geometry":{"type":"Point","coordinates":[-58.327395,-34.695482]}},{"type":"Feature","properties":{"id":225,"mesa_desde":557,"mesa_hasta":566,"cant_mesas":"10","establecim":"ESCUELA ET N°2","direccion":"GRAL.PICO 1305","dne_seccion":4,"dne_distri":2,"circuito":"00039","electores":3502,"votantes":2770,"positivos":2623,"total_parcodigo":1004,"vot_parcodigo":501,"cartodb_id":890,"created_at":"2013-08-28T21:49:43Z","updated_at":"2013-08-28T21:49:43Z"},"geometry":{"type":"Point","coordinates":[-58.3444,-34.704583]}},{"type":"Feature","properties":{"id":226,"mesa_desde":518,"mesa_hasta":524,"cant_mesas":"7","establecim":"INST.PRIV.INMACULADA CONCEPCIO","direccion":"EL SALVADOR 47","dne_seccion":4,"dne_distri":2,"circuito":"00039","electores":2453,"votantes":1643,"positivos":1827,"total_parcodigo":758,"vot_parcodigo":501,"cartodb_id":891,"created_at":"2013-08-28T21:49:43Z","updated_at":"2013-08-28T21:49:43Z"},"geometry":{"type":"Point","coordinates":[-58.337992,-34.689558]}},{"type":"Feature","properties":{"id":227,"mesa_desde":646,"mesa_hasta":648,"cant_mesas":"3","establecim":"COLEG.PARROQ.SALVADOR SOREDA","direccion":"RODO 1264","dne_seccion":4,"dne_distri":2,"circuito":"00040","electores":1050,"votantes":570,"positivos":815,"total_parcodigo":316,"vot_parcodigo":510,"cartodb_id":892,"created_at":"2013-08-28T21:49:43Z","updated_at":"2013-08-28T21:49:43Z"},"geometry":{"type":"Point","coordinates":[-58.331674,-34.714423]}},{"type":"Feature","properties":{"id":228,"mesa_desde":643,"mesa_hasta":645,"cant_mesas":"3","establecim":"COLEGIO JOHN F.KENNEDY","direccion":"MARTIN FIERRO 567","dne_seccion":4,"dne_distri":2,"circuito":"00040","electores":1055,"votantes":554,"positivos":790,"total_parcodigo":322,"vot_parcodigo":510,"cartodb_id":893,"created_at":"2013-08-28T21:49:43Z","updated_at":"2013-08-28T21:49:43Z"},"geometry":{"type":"Point","coordinates":[-58.312653,-34.698093]}},{"type":"Feature","properties":{"id":229,"mesa_desde":758,"mesa_hasta":762,"cant_mesas":"5","establecim":"COLEGIO MODELO PICASSO","direccion":"AV.CASEROS 1152","dne_seccion":4,"dne_distri":2,"circuito":"00040","electores":1755,"votantes":1395,"positivos":1342,"total_parcodigo":501,"vot_parcodigo":510,"cartodb_id":894,"created_at":"2013-08-28T21:49:43Z","updated_at":"2013-08-28T21:49:43Z"},"geometry":{"type":"Point","coordinates":[-58.303057,-34.698339]}},{"type":"Feature","properties":{"id":230,"mesa_desde":630,"mesa_hasta":642,"cant_mesas":"13","establecim":"ESCUELA EP N°20/ES N°23","direccion":"BAHIA BLANCA 585","dne_seccion":4,"dne_distri":2,"circuito":"00040","electores":4555,"votantes":3650,"positivos":3472,"total_parcodigo":1338,"vot_parcodigo":510,"cartodb_id":895,"created_at":"2013-08-28T21:49:43Z","updated_at":"2013-08-28T21:49:43Z"},"geometry":{"type":"Point","coordinates":[-58.313682,-34.697337]}},{"type":"Feature","properties":{"id":231,"mesa_desde":649,"mesa_hasta":658,"cant_mesas":"10","establecim":"ESCUELA EP N°21/ES N°24","direccion":"LOBOS 161","dne_seccion":4,"dne_distri":2,"circuito":"00040","electores":3508,"votantes":2911,"positivos":2769,"total_parcodigo":1203,"vot_parcodigo":510,"cartodb_id":896,"created_at":"2013-08-28T21:49:43Z","updated_at":"2013-08-28T21:49:43Z"},"geometry":{"type":"Point","coordinates":[-58.32205,-34.697716]}},{"type":"Feature","properties":{"id":232,"mesa_desde":620,"mesa_hasta":629,"cant_mesas":"10","establecim":"ESCUELA EP N°38/ES N°31","direccion":"N.OROÑO 5950","dne_seccion":4,"dne_distri":2,"circuito":"00040","electores":3499,"votantes":2778,"positivos":2657,"total_parcodigo":1099,"vot_parcodigo":510,"cartodb_id":897,"created_at":"2013-08-28T21:49:43Z","updated_at":"2013-08-28T21:49:43Z"},"geometry":{"type":"Point","coordinates":[-58.307066,-34.691027]}},{"type":"Feature","properties":{"id":233,"mesa_desde":720,"mesa_hasta":728,"cant_mesas":"9","establecim":"ESCUELA EP N°43","direccion":"MERLO 5687","dne_seccion":4,"dne_distri":2,"circuito":"00040","electores":3154,"votantes":2543,"positivos":2539,"total_parcodigo":974,"vot_parcodigo":510,"cartodb_id":853,"created_at":"2013-08-28T21:49:43Z","updated_at":"2013-08-28T21:49:43Z"},"geometry":{"type":"Point","coordinates":[-58.315114,-34.692361]}},{"type":"Feature","properties":{"id":234,"mesa_desde":659,"mesa_hasta":668,"cant_mesas":"10","establecim":"ESCUELA EP N°50/ES N°1","direccion":"RAQUEL ESPAÑOL 1465","dne_seccion":4,"dne_distri":2,"circuito":"00040","electores":3500,"votantes":2807,"positivos":2702,"total_parcodigo":1026,"vot_parcodigo":510,"cartodb_id":898,"created_at":"2013-08-28T21:49:43Z","updated_at":"2013-08-28T21:49:43Z"},"geometry":{"type":"Point","coordinates":[-58.301102,-34.693836]}},{"type":"Feature","properties":{"id":235,"mesa_desde":763,"mesa_hasta":772,"cant_mesas":"10","establecim":"ESCUELA EP N°51/ES N°13","direccion":"CAMPICHUELO 6709","dne_seccion":4,"dne_distri":2,"circuito":"00040","electores":3500,"votantes":2804,"positivos":2664,"total_parcodigo":1049,"vot_parcodigo":510,"cartodb_id":899,"created_at":"2013-08-28T21:49:43Z","updated_at":"2013-08-28T21:49:43Z"},"geometry":{"type":"Point","coordinates":[-58.329922,-34.722878]}},{"type":"Feature","properties":{"id":236,"mesa_desde":679,"mesa_hasta":688,"cant_mesas":"10","establecim":"ESCUELA EP N°52/ES N°41","direccion":"LAS FLORES 1600","dne_seccion":4,"dne_distri":2,"circuito":"00040","electores":3508,"votantes":2781,"positivos":2663,"total_parcodigo":1067,"vot_parcodigo":510,"cartodb_id":900,"created_at":"2013-08-28T21:49:43Z","updated_at":"2013-08-28T21:49:43Z"},"geometry":{"type":"Point","coordinates":[-58.302279,-34.690921]}},{"type":"Feature","properties":{"id":237,"mesa_desde":689,"mesa_hasta":698,"cant_mesas":"10","establecim":"ESCUELA EP N°55/ES N°14","direccion":"RODO 1150","dne_seccion":4,"dne_distri":2,"circuito":"00040","electores":3504,"votantes":2769,"positivos":2672,"total_parcodigo":1014,"vot_parcodigo":510,"cartodb_id":901,"created_at":"2013-08-28T21:49:43Z","updated_at":"2013-08-28T21:49:43Z"},"geometry":{"type":"Point","coordinates":[-58.330712,-34.713468]}},{"type":"Feature","properties":{"id":238,"mesa_desde":699,"mesa_hasta":709,"cant_mesas":"11","establecim":"ESCUELA EP N°63","direccion":"RONDEAU Y CAXARAVILLE S/N°","dne_seccion":4,"dne_distri":2,"circuito":"00040","electores":3867,"votantes":3133,"positivos":3099,"total_parcodigo":1140,"vot_parcodigo":510,"cartodb_id":902,"created_at":"2013-08-28T21:49:43Z","updated_at":"2013-08-28T21:49:43Z"},"geometry":{"type":"Point","coordinates":[-58.340203,-34.718443]}},{"type":"Feature","properties":{"id":239,"mesa_desde":783,"mesa_hasta":790,"cant_mesas":"8","establecim":"ESCUELA EP N°69/ES N°5","direccion":"ARREDONDO E/YAPEYU Y LYNCH","dne_seccion":4,"dne_distri":2,"circuito":"00040","electores":2751,"votantes":1972,"positivos":2159,"total_parcodigo":770,"vot_parcodigo":510,"cartodb_id":903,"created_at":"2013-08-28T21:49:43Z","updated_at":"2013-08-28T21:49:43Z"},"geometry":{"type":"Point","coordinates":[-58.320778,-34.714911]}},{"type":"Feature","properties":{"id":240,"mesa_desde":607,"mesa_hasta":619,"cant_mesas":"13","establecim":"ESCUELA EP N°8/ES N°38","direccion":"MARTIN FIERRO 58","dne_seccion":4,"dne_distri":2,"circuito":"00040","electores":4558,"votantes":3655,"positivos":3536,"total_parcodigo":1443,"vot_parcodigo":510,"cartodb_id":904,"created_at":"2013-08-28T21:49:43Z","updated_at":"2013-08-28T21:49:43Z"},"geometry":{"type":"Point","coordinates":[-58.318182,-34.702357]}},{"type":"Feature","properties":{"id":241,"mesa_desde":710,"mesa_hasta":719,"cant_mesas":"10","establecim":"ESCUELA ES N°10","direccion":"LAS FLORES 1600","dne_seccion":4,"dne_distri":2,"circuito":"00040","electores":3506,"votantes":2806,"positivos":2688,"total_parcodigo":1089,"vot_parcodigo":510,"cartodb_id":905,"created_at":"2013-08-28T21:49:43Z","updated_at":"2013-08-28T21:49:43Z"},"geometry":{"type":"Point","coordinates":[-58.302997,-34.691013]}},{"type":"Feature","properties":{"id":242,"mesa_desde":748,"mesa_hasta":757,"cant_mesas":"10","establecim":"ESCUELA ES N°2","direccion":"MARTIN FIERRO 590","dne_seccion":4,"dne_distri":2,"circuito":"00040","electores":3507,"votantes":2552,"positivos":2648,"total_parcodigo":906,"vot_parcodigo":510,"cartodb_id":906,"created_at":"2013-08-28T21:49:43Z","updated_at":"2013-08-28T21:49:43Z"},"geometry":{"type":"Point","coordinates":[-58.30966,-34.701186]}},{"type":"Feature","properties":{"id":243,"mesa_desde":729,"mesa_hasta":738,"cant_mesas":"10","establecim":"ESCUELA ET N°3","direccion":"FRIULI Y CAXARAVILLE S/N°","dne_seccion":4,"dne_distri":2,"circuito":"00040","electores":3501,"votantes":2786,"positivos":2546,"total_parcodigo":1087,"vot_parcodigo":510,"cartodb_id":907,"created_at":"2013-08-28T21:49:43Z","updated_at":"2013-08-28T21:49:43Z"},"geometry":{"type":"Point","coordinates":[-58.339426,-34.718684]}},{"type":"Feature","properties":{"id":244,"mesa_desde":669,"mesa_hasta":678,"cant_mesas":"10","establecim":"ESCUELA SAN IGNACIO","direccion":"BRAGADO 6552","dne_seccion":4,"dne_distri":2,"circuito":"00040","electores":3505,"votantes":2815,"positivos":2696,"total_parcodigo":1058,"vot_parcodigo":510,"cartodb_id":908,"created_at":"2013-08-28T21:49:43Z","updated_at":"2013-08-28T21:49:43Z"},"geometry":{"type":"Point","coordinates":[-58.310553,-34.703672]}},{"type":"Feature","properties":{"id":245,"mesa_desde":779,"mesa_hasta":782,"cant_mesas":"4","establecim":"INSTITUTO MARIANO MORENO","direccion":"AV.ONZARI 662","dne_seccion":4,"dne_distri":2,"circuito":"00040","electores":1405,"votantes":1152,"positivos":1100,"total_parcodigo":415,"vot_parcodigo":510,"cartodb_id":909,"created_at":"2013-08-28T21:49:43Z","updated_at":"2013-08-28T21:49:43Z"},"geometry":{"type":"Point","coordinates":[-58.324468,-34.710396]}},{"type":"Feature","properties":{"id":246,"mesa_desde":773,"mesa_hasta":778,"cant_mesas":"6","establecim":"INSTITUTO SAN DIEGO","direccion":"BRANDSEN 5871","dne_seccion":4,"dne_distri":2,"circuito":"00040","electores":2102,"votantes":1673,"positivos":1584,"total_parcodigo":614,"vot_parcodigo":510,"cartodb_id":910,"created_at":"2013-08-28T21:49:43Z","updated_at":"2013-08-28T21:49:43Z"},"geometry":{"type":"Point","coordinates":[-58.323793,-34.701524]}},{"type":"Feature","properties":{"id":247,"mesa_desde":739,"mesa_hasta":747,"cant_mesas":"9","establecim":"INSTITUTO SAN PABLO","direccion":"RONDEAU 948","dne_seccion":4,"dne_distri":2,"circuito":"00040","electores":3157,"votantes":2589,"positivos":2451,"total_parcodigo":854,"vot_parcodigo":510,"cartodb_id":911,"created_at":"2013-08-28T21:49:43Z","updated_at":"2013-08-28T21:49:43Z"},"geometry":{"type":"Point","coordinates":[-58.330659,-34.71033]}},{"type":"Feature","properties":{"id":1481,"mesa_desde":11,"mesa_hasta":14,"cant_mesas":"4","establecim":"COLEGIO MARIA INMACULADA","direccion":"SENET HONORIO(119) N°2051","dne_seccion":52,"dne_distri":2,"circuito":"00376","electores":1402,"votantes":1039,"positivos":984,"total_parcodigo":499,"vot_parcodigo":510,"cartodb_id":1055,"created_at":"2013-08-28T21:49:43Z","updated_at":"2013-08-28T21:49:43Z"},"geometry":{"type":"Point","coordinates":[-58.548094,-34.585917]}},{"type":"Feature","properties":{"id":1482,"mesa_desde":32,"mesa_hasta":41,"cant_mesas":"10","establecim":"ESCUELA EP N°1","direccion":"BELGRANO(52) N°3740","dne_seccion":52,"dne_distri":2,"circuito":"00376","electores":3501,"votantes":2694,"positivos":2592,"total_parcodigo":1201,"vot_parcodigo":510,"cartodb_id":1056,"created_at":"2013-08-28T21:49:43Z","updated_at":"2013-08-28T21:49:43Z"},"geometry":{"type":"Point","coordinates":[-58.53715,-34.577699]}},{"type":"Feature","properties":{"id":1483,"mesa_desde":57,"mesa_hasta":66,"cant_mesas":"10","establecim":"ESCUELA EP N°23","direccion":"(85)BONIFACINI N°248","dne_seccion":52,"dne_distri":2,"circuito":"00376","electores":3503,"votantes":2672,"positivos":2563,"total_parcodigo":1217,"vot_parcodigo":510,"cartodb_id":1057,"created_at":"2013-08-28T21:49:43Z","updated_at":"2013-08-28T21:49:43Z"},"geometry":{"type":"Point","coordinates":[-58.532393,-34.579904]}},{"type":"Feature","properties":{"id":1484,"mesa_desde":15,"mesa_hasta":27,"cant_mesas":"13","establecim":"ESCUELA EP N°85","direccion":"SALGUERO 2454","dne_seccion":52,"dne_distri":2,"circuito":"00376","electores":4548,"votantes":3525,"positivos":3412,"total_parcodigo":1684,"vot_parcodigo":510,"cartodb_id":1058,"created_at":"2013-08-28T21:49:43Z","updated_at":"2013-08-28T21:49:43Z"},"geometry":{"type":"Point","coordinates":[-58.540999,-34.572798]}},{"type":"Feature","properties":{"id":1485,"mesa_desde":28,"mesa_hasta":31,"cant_mesas":"4","establecim":"ESCUELA ES N°20","direccion":"RAMON L.FALCON(62) N°3676","dne_seccion":52,"dne_distri":2,"circuito":"00376","electores":1402,"votantes":1090,"positivos":1047,"total_parcodigo":520,"vot_parcodigo":510,"cartodb_id":1059,"created_at":"2013-08-28T21:49:43Z","updated_at":"2013-08-28T21:49:43Z"},"geometry":{"type":"Point","coordinates":[-58.541503,-34.572752]}},{"type":"Feature","properties":{"id":1486,"mesa_desde":1,"mesa_hasta":10,"cant_mesas":"10","establecim":"ESCUELA ET N°3","direccion":"AV.101 N°2281","dne_seccion":52,"dne_distri":2,"circuito":"00376","electores":3501,"votantes":2636,"positivos":2617,"total_parcodigo":1287,"vot_parcodigo":510,"cartodb_id":1060,"created_at":"2013-08-28T21:49:43Z","updated_at":"2013-08-28T21:49:43Z"},"geometry":{"type":"Point","coordinates":[-58.544647,-34.579041]}},{"type":"Feature","properties":{"id":1487,"mesa_desde":47,"mesa_hasta":56,"cant_mesas":"10","establecim":"ESCUELA ET N°4","direccion":"SAN MARTIN(91) N°1714","dne_seccion":52,"dne_distri":2,"circuito":"00376","electores":3507,"votantes":2737,"positivos":2643,"total_parcodigo":1230,"vot_parcodigo":510,"cartodb_id":1061,"created_at":"2013-08-28T21:49:43Z","updated_at":"2013-08-28T21:49:43Z"},"geometry":{"type":"Point","coordinates":[-58.535129,-34.580125]}},{"type":"Feature","properties":{"id":1488,"mesa_desde":67,"mesa_hasta":76,"cant_mesas":"10","establecim":"ESCUELA PARROQ.JOSE M.ESTRADA","direccion":"DARDO ROCHA(105) N°1853","dne_seccion":52,"dne_distri":2,"circuito":"00376","electores":3170,"votantes":1900,"positivos":2329,"total_parcodigo":1134,"vot_parcodigo":510,"cartodb_id":1062,"created_at":"2013-08-28T21:49:43Z","updated_at":"2013-08-28T21:49:43Z"},"geometry":{"type":"Point","coordinates":[-58.541205,-34.58378]}},{"type":"Feature","properties":{"id":1489,"mesa_desde":42,"mesa_hasta":46,"cant_mesas":"5","establecim":"INSTITUTO C.PELLEGRINI","direccion":"BELGRANO 3720","dne_seccion":52,"dne_distri":2,"circuito":"00376","electores":1752,"votantes":1099,"positivos":1327,"total_parcodigo":635,"vot_parcodigo":510,"cartodb_id":1063,"created_at":"2013-08-28T21:49:43Z","updated_at":"2013-08-28T21:49:43Z"},"geometry":{"type":"Point","coordinates":[-58.536846,-34.577453]}},{"type":"Feature","properties":{"id":1490,"mesa_desde":154,"mesa_hasta":158,"cant_mesas":"5","establecim":"CLUB LAS HERAS","direccion":"LIBERTAD(49) N°5052","dne_seccion":52,"dne_distri":2,"circuito":"00377","electores":1748,"votantes":1360,"positivos":1309,"total_parcodigo":592,"vot_parcodigo":510,"cartodb_id":1064,"created_at":"2013-08-28T21:49:43Z","updated_at":"2013-08-28T21:49:43Z"},"geometry":{"type":"Point","coordinates":[-58.552923,-34.542998]}},{"type":"Feature","properties":{"id":1491,"mesa_desde":125,"mesa_hasta":132,"cant_mesas":"8","establecim":"COLEGIO FERNANDO JOSE AGUER","direccion":"(69)DR.ALEU 4171","dne_seccion":52,"dne_distri":2,"circuito":"00377","electores":2798,"votantes":2054,"positivos":1938,"total_parcodigo":943,"vot_parcodigo":510,"cartodb_id":1065,"created_at":"2013-08-28T21:49:43Z","updated_at":"2013-08-28T21:49:43Z"},"geometry":{"type":"Point","coordinates":[-58.547192,-34.557558]}},{"type":"Feature","properties":{"id":1492,"mesa_desde":170,"mesa_hasta":183,"cant_mesas":"14","establecim":"COLEGIO NTRA.SRA.DE LA MERCED","direccion":"(126)LAMADRID 313","dne_seccion":52,"dne_distri":2,"circuito":"00377","electores":4703,"votantes":3520,"positivos":3308,"total_parcodigo":1570,"vot_parcodigo":510,"cartodb_id":1066,"created_at":"2013-08-28T21:49:43Z","updated_at":"2013-08-28T21:49:43Z"},"geometry":{"type":"Point","coordinates":[-58.556585,-34.545568]}},{"type":"Feature","properties":{"id":1493,"mesa_desde":159,"mesa_hasta":163,"cant_mesas":"5","establecim":"COLEGIO SAN JOAQUIN","direccion":"SAN JUAN(55) N°4560","dne_seccion":52,"dne_distri":2,"circuito":"00377","electores":1753,"votantes":1304,"positivos":1258,"total_parcodigo":626,"vot_parcodigo":510,"cartodb_id":1067,"created_at":"2013-08-28T21:49:43Z","updated_at":"2013-08-28T21:49:43Z"},"geometry":{"type":"Point","coordinates":[-58.55008,-34.548707]}},{"type":"Feature","properties":{"id":1494,"mesa_desde":133,"mesa_hasta":141,"cant_mesas":"9","establecim":"ESCUELA EP N°27","direccion":"LIBERTAD(49) N°292","dne_seccion":52,"dne_distri":2,"circuito":"00377","electores":3148,"votantes":2430,"positivos":2335,"total_parcodigo":1120,"vot_parcodigo":510,"cartodb_id":1068,"created_at":"2013-08-28T21:49:43Z","updated_at":"2013-08-28T21:49:43Z"},"geometry":{"type":"Point","coordinates":[-58.552266,-34.544039]}},{"type":"Feature","properties":{"id":1495,"mesa_desde":93,"mesa_hasta":107,"cant_mesas":"15","establecim":"ESCUELA EP N°3/ES N°45","direccion":"LACROZE(61) N°25","dne_seccion":52,"dne_distri":2,"circuito":"00377","electores":5258,"votantes":4100,"positivos":3735,"total_parcodigo":1786,"vot_parcodigo":510,"cartodb_id":1069,"created_at":"2013-08-28T21:49:43Z","updated_at":"2013-08-28T21:49:43Z"},"geometry":{"type":"Point","coordinates":[-58.551931,-34.549716]}},{"type":"Feature","properties":{"id":1496,"mesa_desde":77,"mesa_hasta":82,"cant_mesas":"6","establecim":"ESCUELA EP N°63","direccion":"LAS HERAS(104) N°1545","dne_seccion":52,"dne_distri":2,"circuito":"00377","electores":2108,"votantes":1617,"positivos":1553,"total_parcodigo":767,"vot_parcodigo":510,"cartodb_id":1070,"created_at":"2013-08-28T21:49:43Z","updated_at":"2013-08-28T21:49:43Z"},"geometry":{"type":"Point","coordinates":[-58.541324,-34.544734]}},{"type":"Feature","properties":{"id":1497,"mesa_desde":164,"mesa_hasta":169,"cant_mesas":"6","establecim":"ESCUELA EP N°69","direccion":"(51)CORRIENTES 581","dne_seccion":52,"dne_distri":2,"circuito":"00377","electores":2104,"votantes":1592,"positivos":1505,"total_parcodigo":711,"vot_parcodigo":510,"cartodb_id":1071,"created_at":"2013-08-28T21:49:43Z","updated_at":"2013-08-28T21:49:43Z"},"geometry":{"type":"Point","coordinates":[-58.542254,-34.553545]}},{"type":"Feature","properties":{"id":1498,"mesa_desde":142,"mesa_hasta":153,"cant_mesas":"12","establecim":"ESCUELA EP N°9","direccion":"BOULEVARD BALLESTER 554","dne_seccion":52,"dne_distri":2,"circuito":"00377","electores":4200,"votantes":3192,"positivos":3133,"total_parcodigo":1561,"vot_parcodigo":510,"cartodb_id":1072,"created_at":"2013-08-28T21:49:43Z","updated_at":"2013-08-28T21:49:43Z"},"geometry":{"type":"Point","coordinates":[-58.558224,-34.543716]}},{"type":"Feature","properties":{"id":1499,"mesa_desde":108,"mesa_hasta":124,"cant_mesas":"17","establecim":"ESCUELA ES N°13","direccion":"LACROZE(61) N°4915","dne_seccion":52,"dne_distri":2,"circuito":"00377","electores":5957,"votantes":4493,"positivos":4326,"total_parcodigo":2105,"vot_parcodigo":510,"cartodb_id":1073,"created_at":"2013-08-28T21:49:43Z","updated_at":"2013-08-28T21:49:43Z"},"geometry":{"type":"Point","coordinates":[-58.553739,-34.548267]}},{"type":"Feature","properties":{"id":1500,"mesa_desde":83,"mesa_hasta":92,"cant_mesas":"10","establecim":"INSTITUTO SANTA ANA","direccion":"BOULEVARD BALLESTER 4705","dne_seccion":52,"dne_distri":2,"circuito":"00377","electores":3500,"votantes":2694,"positivos":2596,"total_parcodigo":1220,"vot_parcodigo":510,"cartodb_id":1074,"created_at":"2013-08-28T21:49:43Z","updated_at":"2013-08-28T21:49:43Z"},"geometry":{"type":"Point","coordinates":[-58.551654,-34.54848]}},{"type":"Feature","properties":{"id":1501,"mesa_desde":399,"mesa_hasta":400,"cant_mesas":"2","establecim":"CIRCULO SAN ANDRES","direccion":"(75)CONGRESO 3285","dne_seccion":52,"dne_distri":2,"circuito":"00378","electores":702,"votantes":552,"positivos":510,"total_parcodigo":239,"vot_parcodigo":510,"cartodb_id":1075,"created_at":"2013-08-28T21:49:43Z","updated_at":"2013-08-28T21:49:43Z"},"geometry":{"type":"Point","coordinates":[-58.545456,-34.562709]}},{"type":"Feature","properties":{"id":1502,"mesa_desde":378,"mesa_hasta":383,"cant_mesas":"6","establecim":"COLEGIO EMILIO LAMARCA","direccion":"CONGRESO (75) N°364","dne_seccion":52,"dne_distri":2,"circuito":"00378","electores":2104,"votantes":1621,"positivos":1543,"total_parcodigo":704,"vot_parcodigo":510,"cartodb_id":1076,"created_at":"2013-08-28T21:49:43Z","updated_at":"2013-08-28T21:49:43Z"},"geometry":{"type":"Point","coordinates":[-58.551115,-34.557905]}},{"type":"Feature","properties":{"id":1503,"mesa_desde":365,"mesa_hasta":377,"cant_mesas":"13","establecim":"COLEGIO NTRA.SRA.DE LA MERCED","direccion":"JUNIN (65) N°2641","dne_seccion":52,"dne_distri":2,"circuito":"00378","electores":4562,"votantes":2190,"positivos":2357,"total_parcodigo":1086,"vot_parcodigo":510,"cartodb_id":1077,"created_at":"2013-08-28T21:49:43Z","updated_at":"2013-08-28T21:49:43Z"},"geometry":{"type":"Point","coordinates":[-58.535659,-34.56505]}},{"type":"Feature","properties":{"id":1504,"mesa_desde":401,"mesa_hasta":410,"cant_mesas":"10","establecim":"ESCUELA EP N°14/ES N°18","direccion":"(35)MENDOZA Y  CONSTITUYENTES S/N°","dne_seccion":52,"dne_distri":2,"circuito":"00378","electores":3501,"votantes":1680,"positivos":2380,"total_parcodigo":1091,"vot_parcodigo":510,"cartodb_id":1078,"created_at":"2013-08-28T21:49:43Z","updated_at":"2013-08-28T21:49:43Z"},"geometry":{"type":"Point","coordinates":[-58.521629,-34.55512]}},{"type":"Feature","properties":{"id":1505,"mesa_desde":411,"mesa_hasta":416,"cant_mesas":"6","establecim":"ESCUELA EP N°16","direccion":"AYACUCHO(79) N°3149","dne_seccion":52,"dne_distri":2,"circuito":"00378","electores":2024,"votantes":1610,"positivos":1527,"total_parcodigo":750,"vot_parcodigo":510,"cartodb_id":1080,"created_at":"2013-08-28T21:49:43Z","updated_at":"2013-08-28T21:49:43Z"},"geometry":{"type":"Point","coordinates":[-58.545649,-34.564741]}},{"type":"Feature","properties":{"id":1506,"mesa_desde":335,"mesa_hasta":343,"cant_mesas":"9","establecim":"ESCUELA EP N°20","direccion":"(64)AV.PTE.PERON 217","dne_seccion":52,"dne_distri":2,"circuito":"00378","electores":3158,"votantes":2443,"positivos":2332,"total_parcodigo":1069,"vot_parcodigo":510,"cartodb_id":1081,"created_at":"2013-08-28T21:49:43Z","updated_at":"2013-08-28T21:49:43Z"},"geometry":{"type":"Point","coordinates":[-58.541862,-34.571184]}},{"type":"Feature","properties":{"id":1507,"mesa_desde":344,"mesa_hasta":355,"cant_mesas":"12","establecim":"ESCUELA EP N°36","direccion":"(76)JOSE M.CAMPOS 1918","dne_seccion":52,"dne_distri":2,"circuito":"00378","electores":4201,"votantes":3388,"positivos":3194,"total_parcodigo":1591,"vot_parcodigo":510,"cartodb_id":1082,"created_at":"2013-08-28T21:49:43Z","updated_at":"2013-08-28T21:49:43Z"},"geometry":{"type":"Point","coordinates":[-58.536357,-34.558566]}},{"type":"Feature","properties":{"id":1508,"mesa_desde":384,"mesa_hasta":391,"cant_mesas":"8","establecim":"ESCUELA EP N°39","direccion":"SAENZ PEÑA 2953","dne_seccion":52,"dne_distri":2,"circuito":"00378","electores":2806,"votantes":2220,"positivos":2092,"total_parcodigo":979,"vot_parcodigo":510,"cartodb_id":1083,"created_at":"2013-08-28T21:49:43Z","updated_at":"2013-08-28T21:49:43Z"},"geometry":{"type":"Point","coordinates":[-58.535699,-34.568444]}},{"type":"Feature","properties":{"id":1509,"mesa_desde":356,"mesa_hasta":364,"cant_mesas":"9","establecim":"ESCUELA EP N°48","direccion":"90 N°750 E/15 Y 17","dne_seccion":52,"dne_distri":2,"circuito":"00378","electores":3152,"votantes":2229,"positivos":2379,"total_parcodigo":1108,"vot_parcodigo":510,"cartodb_id":1084,"created_at":"2013-08-28T21:49:43Z","updated_at":"2013-08-28T21:49:43Z"},"geometry":{"type":"Point","coordinates":[-58.531361,-34.544582]}},{"type":"Feature","properties":{"id":1510,"mesa_desde":392,"mesa_hasta":398,"cant_mesas":"7","establecim":"ESCUELA EP N°54","direccion":"PJE.82 ESCRIB.CAGNIN 2051","dne_seccion":52,"dne_distri":2,"circuito":"00378","electores":2451,"votantes":1634,"positivos":1825,"total_parcodigo":807,"vot_parcodigo":510,"cartodb_id":1085,"created_at":"2013-08-28T21:49:43Z","updated_at":"2013-08-28T21:49:43Z"},"geometry":{"type":"Point","coordinates":[-58.537366,-34.553976]}},{"type":"Feature","properties":{"id":1511,"mesa_desde":454,"mesa_hasta":456,"cant_mesas":"3","establecim":"CLUB NUESTRA SEÑORA DE LUJAN","direccion":"(38)GENERAL SAVIO 1306 Y  P.OBLIGADO","dne_seccion":52,"dne_distri":2,"circuito":"00379","electores":1053,"votantes":823,"positivos":780,"total_parcodigo":354,"vot_parcodigo":510,"cartodb_id":1086,"created_at":"2013-08-28T21:49:43Z","updated_at":"2013-08-28T21:49:43Z"},"geometry":{"type":"Point","coordinates":[-58.512712,-34.569197]}},{"type":"Feature","properties":{"id":1512,"mesa_desde":441,"mesa_hasta":447,"cant_mesas":"7","establecim":"ESCUELA EP N°22","direccion":"ESTRADA (48) N°2985","dne_seccion":52,"dne_distri":2,"circuito":"00379","electores":2451,"votantes":1973,"positivos":1877,"total_parcodigo":850,"vot_parcodigo":510,"cartodb_id":1087,"created_at":"2013-08-28T21:49:43Z","updated_at":"2013-08-28T21:49:43Z"},"geometry":{"type":"Point","coordinates":[-58.530033,-34.573528]}},{"type":"Feature","properties":{"id":1513,"mesa_desde":422,"mesa_hasta":433,"cant_mesas":"12","establecim":"ESCUELA EP N°25","direccion":"48 N°2410","dne_seccion":52,"dne_distri":2,"circuito":"00379","electores":4211,"votantes":3319,"positivos":3177,"total_parcodigo":1496,"vot_parcodigo":510,"cartodb_id":1088,"created_at":"2013-08-28T21:49:43Z","updated_at":"2013-08-28T21:49:43Z"},"geometry":{"type":"Point","coordinates":[-58.524374,-34.570577]}},{"type":"Feature","properties":{"id":1514,"mesa_desde":434,"mesa_hasta":440,"cant_mesas":"7","establecim":"ESCUELA EP N°62","direccion":"JULIO A.ROCA (37) N°2400","dne_seccion":52,"dne_distri":2,"circuito":"00379","electores":2462,"votantes":1943,"positivos":1868,"total_parcodigo":860,"vot_parcodigo":510,"cartodb_id":1089,"created_at":"2013-08-28T21:49:43Z","updated_at":"2013-08-28T21:49:43Z"},"geometry":{"type":"Point","coordinates":[-58.523776,-34.561044]}},{"type":"Feature","properties":{"id":1515,"mesa_desde":457,"mesa_hasta":466,"cant_mesas":"10","establecim":"ESCUELA ES N°1","direccion":"(44)JUAREZ 3626","dne_seccion":52,"dne_distri":2,"circuito":"00379","electores":3514,"votantes":2210,"positivos":2783,"total_parcodigo":1178,"vot_parcodigo":510,"cartodb_id":1090,"created_at":"2013-08-28T21:49:43Z","updated_at":"2013-08-28T21:49:43Z"},"geometry":{"type":"Point","coordinates":[-58.532851,-34.579376]}},{"type":"Feature","properties":{"id":1516,"mesa_desde":467,"mesa_hasta":476,"cant_mesas":"10","establecim":"ESCUELA ES N°23","direccion":"DE LOS CONSTITUYENTES 2010","dne_seccion":52,"dne_distri":2,"circuito":"00379","electores":3507,"votantes":2359,"positivos":2460,"total_parcodigo":1166,"vot_parcodigo":510,"cartodb_id":1091,"created_at":"2013-08-28T21:49:43Z","updated_at":"2013-08-28T21:49:43Z"},"geometry":{"type":"Point","coordinates":[-58.528225,-34.540088]}},{"type":"Feature","properties":{"id":1517,"mesa_desde":417,"mesa_hasta":421,"cant_mesas":"5","establecim":"INSTITUTO MAIPU","direccion":"PUEYRREDON (58) N°2931","dne_seccion":52,"dne_distri":2,"circuito":"00379","electores":1757,"votantes":1380,"positivos":1402,"total_parcodigo":596,"vot_parcodigo":510,"cartodb_id":1092,"created_at":"2013-08-28T21:49:43Z","updated_at":"2013-08-28T21:49:43Z"},"geometry":{"type":"Point","coordinates":[-58.534208,-34.569586]}},{"type":"Feature","properties":{"id":1518,"mesa_desde":448,"mesa_hasta":453,"cant_mesas":"6","establecim":"INSTITUTO POLIMODAL SAN JOSE","direccion":"(48)ESTRADA 2454","dne_seccion":52,"dne_distri":2,"circuito":"00379","electores":2106,"votantes":1389,"positivos":1584,"total_parcodigo":735,"vot_parcodigo":510,"cartodb_id":1093,"created_at":"2013-08-28T21:49:43Z","updated_at":"2013-08-28T21:49:43Z"},"geometry":{"type":"Point","coordinates":[-58.524975,-34.570479]}},{"type":"Feature","properties":{"id":1519,"mesa_desde":477,"mesa_hasta":479,"cant_mesas":"3","establecim":"JARDIN DE INFANTES N°934","direccion":"M.T.DE ALVEAR 2464","dne_seccion":52,"dne_distri":2,"circuito":"00379","electores":856,"votantes":655,"positivos":625,"total_parcodigo":283,"vot_parcodigo":510,"cartodb_id":1094,"created_at":"2013-08-28T21:49:43Z","updated_at":"2013-08-28T21:49:43Z"},"geometry":{"type":"Point","coordinates":[-58.563075,-34.554089]}},{"type":"Feature","properties":{"id":1520,"mesa_desde":494,"mesa_hasta":500,"cant_mesas":"7","establecim":"ESCUELA EP N°29","direccion":"(24)RCA.DE ISRAEL 284","dne_seccion":52,"dne_distri":2,"circuito":"00380","electores":2452,"votantes":1844,"positivos":1767,"total_parcodigo":875,"vot_parcodigo":510,"cartodb_id":1095,"created_at":"2013-08-28T21:49:43Z","updated_at":"2013-08-28T21:49:43Z"},"geometry":{"type":"Point","coordinates":[-58.52432,-34.585324]}},{"type":"Feature","properties":{"id":1521,"mesa_desde":519,"mesa_hasta":527,"cant_mesas":"9","establecim":"ESCUELA EP N°4","direccion":"(22)RODRIGUEZ PEÑA 661","dne_seccion":52,"dne_distri":2,"circuito":"00380","electores":3138,"votantes":2382,"positivos":2248,"total_parcodigo":1008,"vot_parcodigo":510,"cartodb_id":1096,"created_at":"2013-08-28T21:49:43Z","updated_at":"2013-08-28T21:49:43Z"},"geometry":{"type":"Point","coordinates":[-58.531796,-34.590615]}},{"type":"Feature","properties":{"id":1522,"mesa_desde":487,"mesa_hasta":493,"cant_mesas":"7","establecim":"ESCUELA EP N°45","direccion":"(127)OMBU 1490","dne_seccion":52,"dne_distri":2,"circuito":"00380","electores":2450,"votantes":1869,"positivos":1804,"total_parcodigo":862,"vot_parcodigo":510,"cartodb_id":1097,"created_at":"2013-08-28T21:49:43Z","updated_at":"2013-08-28T21:49:43Z"},"geometry":{"type":"Point","coordinates":[-58.547685,-34.592081]}},{"type":"Feature","properties":{"id":1523,"mesa_desde":480,"mesa_hasta":486,"cant_mesas":"7","establecim":"ESCUELA ES N°5","direccion":"(14)ESPORA 265","dne_seccion":52,"dne_distri":2,"circuito":"00380","electores":2455,"votantes":1869,"positivos":1807,"total_parcodigo":810,"vot_parcodigo":510,"cartodb_id":1098,"created_at":"2013-08-28T21:49:43Z","updated_at":"2013-08-28T21:49:43Z"},"geometry":{"type":"Point","coordinates":[-58.526295,-34.590943]}},{"type":"Feature","properties":{"id":1524,"mesa_desde":512,"mesa_hasta":518,"cant_mesas":"7","establecim":"INSTITUTO NTRA.SRA.DEL LIBANO","direccion":"AV.RCA.DEL LIBANO(10) Y  MONTEAGUDO","dne_seccion":52,"dne_distri":2,"circuito":"00380","electores":2456,"votantes":1927,"positivos":1859,"total_parcodigo":874,"vot_parcodigo":510,"cartodb_id":1099,"created_at":"2013-08-28T21:49:43Z","updated_at":"2013-08-28T21:49:43Z"},"geometry":{"type":"Point","coordinates":[-58.525263,-34.591563]}},{"type":"Feature","properties":{"id":1525,"mesa_desde":501,"mesa_hasta":511,"cant_mesas":"11","establecim":"INSTITUTO NTRA.SRA.DEL ROSARIO","direccion":"(32)SAN CARLOS 4609","dne_seccion":52,"dne_distri":2,"circuito":"00380","electores":3855,"votantes":2628,"positivos":2756,"total_parcodigo":1326,"vot_parcodigo":510,"cartodb_id":1100,"created_at":"2013-08-28T21:49:43Z","updated_at":"2013-08-28T21:49:43Z"},"geometry":{"type":"Point","coordinates":[-58.536568,-34.589283]}},{"type":"Feature","properties":{"id":1526,"mesa_desde":605,"mesa_hasta":616,"cant_mesas":"12","establecim":"COLEGIO JOSE HERNANDEZ (EP)","direccion":"(120)BALCARCE 73","dne_seccion":52,"dne_distri":2,"circuito":"00381","electores":4214,"votantes":3379,"positivos":3200,"total_parcodigo":1485,"vot_parcodigo":510,"cartodb_id":1101,"created_at":"2013-08-28T21:49:43Z","updated_at":"2013-08-28T21:49:43Z"},"geometry":{"type":"Point","coordinates":[-58.558012,-34.550411]}},{"type":"Feature","properties":{"id":1527,"mesa_desde":617,"mesa_hasta":627,"cant_mesas":"11","establecim":"ESC.NORM.SUP.R.VERA PEÑALOZA","direccion":"(120)BALCARCE 3469","dne_seccion":52,"dne_distri":2,"circuito":"00381","electores":3863,"votantes":3119,"positivos":2958,"total_parcodigo":1422,"vot_parcodigo":510,"cartodb_id":1102,"created_at":"2013-08-28T21:49:43Z","updated_at":"2013-08-28T21:49:43Z"},"geometry":{"type":"Point","coordinates":[-58.562766,-34.554288]}},{"type":"Feature","properties":{"id":1528,"mesa_desde":528,"mesa_hasta":534,"cant_mesas":"7","establecim":"ESCUELA EP N°11","direccion":"(93)SAN J.DE FLORES Y  (110)HERNANDEZ","dne_seccion":52,"dne_distri":2,"circuito":"00381","electores":2455,"votantes":1985,"positivos":1877,"total_parcodigo":861,"vot_parcodigo":510,"cartodb_id":1103,"created_at":"2013-08-28T21:49:43Z","updated_at":"2013-08-28T21:49:43Z"},"geometry":{"type":"Point","coordinates":[-58.562859,-34.559553]}},{"type":"Feature","properties":{"id":1529,"mesa_desde":580,"mesa_hasta":588,"cant_mesas":"9","establecim":"ESCUELA EP N°13","direccion":"DIAG.180 N°3528","dne_seccion":52,"dne_distri":2,"circuito":"00381","electores":3157,"votantes":2548,"positivos":2354,"total_parcodigo":1148,"vot_parcodigo":510,"cartodb_id":1104,"created_at":"2013-08-28T21:49:43Z","updated_at":"2013-08-28T21:49:43Z"},"geometry":{"type":"Point","coordinates":[-58.582153,-34.536886]}},{"type":"Feature","properties":{"id":1530,"mesa_desde":556,"mesa_hasta":566,"cant_mesas":"11","establecim":"ESCUELA EP N°15","direccion":"(146)CAMPICHUELO 1142","dne_seccion":52,"dne_distri":2,"circuito":"00381","electores":3863,"votantes":3080,"positivos":2876,"total_parcodigo":1371,"vot_parcodigo":510,"cartodb_id":1105,"created_at":"2013-08-28T21:49:43Z","updated_at":"2013-08-28T21:49:43Z"},"geometry":{"type":"Point","coordinates":[-58.576476,-34.550575]}},{"type":"Feature","properties":{"id":1531,"mesa_desde":567,"mesa_hasta":573,"cant_mesas":"7","establecim":"ESCUELA EP N°24","direccion":"(71)PROF.AGUER 6641","dne_seccion":52,"dne_distri":2,"circuito":"00381","electores":2456,"votantes":1976,"positivos":1892,"total_parcodigo":924,"vot_parcodigo":510,"cartodb_id":1106,"created_at":"2013-08-28T21:49:43Z","updated_at":"2013-08-28T21:49:43Z"},"geometry":{"type":"Point","coordinates":[-58.573685,-34.538756]}},{"type":"Feature","properties":{"id":1532,"mesa_desde":598,"mesa_hasta":604,"cant_mesas":"7","establecim":"ESCUELA EP N°40/ES N°27","direccion":"(83)BME.MITRE 5473","dne_seccion":52,"dne_distri":2,"circuito":"00381","electores":2461,"votantes":1977,"positivos":1882,"total_parcodigo":844,"vot_parcodigo":510,"cartodb_id":1107,"created_at":"2013-08-28T21:49:43Z","updated_at":"2013-08-28T21:49:43Z"},"geometry":{"type":"Point","coordinates":[-58.567166,-34.551231]}},{"type":"Feature","properties":{"id":1533,"mesa_desde":549,"mesa_hasta":555,"cant_mesas":"7","establecim":"ESCUELA EP N°49/ES N°9","direccion":"(164)SAENZ PEÑA 3645","dne_seccion":52,"dne_distri":2,"circuito":"00381","electores":2455,"votantes":1971,"positivos":1844,"total_parcodigo":886,"vot_parcodigo":510,"cartodb_id":1108,"created_at":"2013-08-28T21:49:43Z","updated_at":"2013-08-28T21:49:43Z"},"geometry":{"type":"Point","coordinates":[-58.577283,-34.543913]}},{"type":"Feature","properties":{"id":1534,"mesa_desde":535,"mesa_hasta":548,"cant_mesas":"14","establecim":"ESCUELA EP N°7","direccion":"(120)BALCARCE 277","dne_seccion":52,"dne_distri":2,"circuito":"00381","electores":4913,"votantes":4033,"positivos":3786,"total_parcodigo":1774,"vot_parcodigo":510,"cartodb_id":1109,"created_at":"2013-08-28T21:49:43Z","updated_at":"2013-08-28T21:49:43Z"},"geometry":{"type":"Point","coordinates":[-58.560074,-34.55203]}},{"type":"Feature","properties":{"id":1535,"mesa_desde":574,"mesa_hasta":579,"cant_mesas":"6","establecim":"ESCUELA EP N°84","direccion":"(69)SAN MARTIN 5810","dne_seccion":52,"dne_distri":2,"circuito":"00381","electores":2110,"votantes":1622,"positivos":1534,"total_parcodigo":714,"vot_parcodigo":510,"cartodb_id":1110,"created_at":"2013-08-28T21:49:43Z","updated_at":"2013-08-28T21:49:43Z"},"geometry":{"type":"Point","coordinates":[-58.581701,-34.557756]}},{"type":"Feature","properties":{"id":1536,"mesa_desde":628,"mesa_hasta":635,"cant_mesas":"8","establecim":"INSTITUTO BALLESTER","direccion":"SAN MARTIN 444","dne_seccion":52,"dne_distri":2,"circuito":"00381","electores":2809,"votantes":2269,"positivos":2174,"total_parcodigo":1040,"vot_parcodigo":510,"cartodb_id":1111,"created_at":"2013-08-28T21:49:43Z","updated_at":"2013-08-28T21:49:43Z"},"geometry":{"type":"Point","coordinates":[-58.559375,-34.548664]}},{"type":"Feature","properties":{"id":1537,"mesa_desde":589,"mesa_hasta":597,"cant_mesas":"9","establecim":"INSTITUTO JOSE HERNANDEZ","direccion":"(71)PROFESOR AGUER 5036","dne_seccion":52,"dne_distri":2,"circuito":"00381","electores":3158,"votantes":2590,"positivos":2458,"total_parcodigo":1153,"vot_parcodigo":510,"cartodb_id":1112,"created_at":"2013-08-28T21:49:43Z","updated_at":"2013-08-28T21:49:43Z"},"geometry":{"type":"Point","coordinates":[-58.558788,-34.55043]}},{"type":"Feature","properties":{"id":1538,"mesa_desde":636,"mesa_hasta":644,"cant_mesas":"9","establecim":"INSTITUTO JOSE HERNANDEZ (ES)","direccion":"(71)PROF.AGUER 5059","dne_seccion":52,"dne_distri":2,"circuito":"00381","electores":3011,"votantes":2141,"positivos":2090,"total_parcodigo":820,"vot_parcodigo":510,"cartodb_id":1113,"created_at":"2013-08-28T21:49:43Z","updated_at":"2013-08-28T21:49:43Z"},"geometry":{"type":"Point","coordinates":[-58.558788,-34.55043]}},{"type":"Feature","properties":{"id":1539,"mesa_desde":657,"mesa_hasta":661,"cant_mesas":"5","establecim":"COLEGIO AGUSTINIANO","direccion":"(85)SALGUERO 2778","dne_seccion":52,"dne_distri":2,"circuito":"00382","electores":1696,"votantes":1378,"positivos":1336,"total_parcodigo":682,"vot_parcodigo":510,"cartodb_id":1114,"created_at":"2013-08-28T21:49:43Z","updated_at":"2013-08-28T21:49:43Z"},"geometry":{"type":"Point","coordinates":[-58.544137,-34.570217]}},{"type":"Feature","properties":{"id":1540,"mesa_desde":645,"mesa_hasta":656,"cant_mesas":"12","establecim":"LICEO MILITAR GRAL.SAN MARTIN","direccion":"(95)SAN LORENZO 1100","dne_seccion":52,"dne_distri":2,"circuito":"00382","electores":4205,"votantes":3469,"positivos":3273,"total_parcodigo":1667,"vot_parcodigo":510,"cartodb_id":1115,"created_at":"2013-08-28T21:49:43Z","updated_at":"2013-08-28T21:49:43Z"},"geometry":{"type":"Point","coordinates":[-58.53922,-34.58481]}},{"type":"Feature","properties":{"id":1541,"mesa_desde":676,"mesa_hasta":679,"cant_mesas":"4","establecim":"ESCUELA EP N°19","direccion":"(DG.80)JUJUY 31","dne_seccion":52,"dne_distri":2,"circuito":"00383","electores":1173,"votantes":960,"positivos":933,"total_parcodigo":430,"vot_parcodigo":510,"cartodb_id":1116,"created_at":"2013-08-28T21:49:43Z","updated_at":"2013-08-28T21:49:43Z"},"geometry":{"type":"Point","coordinates":[-58.551159,-34.562862]}},{"type":"Feature","properties":{"id":1542,"mesa_desde":662,"mesa_hasta":675,"cant_mesas":"14","establecim":"ESCUELA EP N°34","direccion":"(71)AMERICA 151","dne_seccion":52,"dne_distri":2,"circuito":"00383","electores":4910,"votantes":4056,"positivos":3885,"total_parcodigo":1885,"vot_parcodigo":510,"cartodb_id":1117,"created_at":"2013-08-28T21:49:43Z","updated_at":"2013-08-28T21:49:43Z"},"geometry":{"type":"Point","coordinates":[-58.553636,-34.554899]}},{"type":"Feature","properties":{"id":1543,"mesa_desde":680,"mesa_hasta":685,"cant_mesas":"6","establecim":"CENTRO FORM.PROFESIONAL N°401","direccion":"64)AV.PTE PERON Y  (139)CNEL.MON","dne_seccion":52,"dne_distri":2,"circuito":"00384","electores":2105,"votantes":1394,"positivos":1512,"total_parcodigo":662,"vot_parcodigo":510,"cartodb_id":1118,"created_at":"2013-08-28T21:49:43Z","updated_at":"2013-08-28T21:49:43Z"},"geometry":{"type":"Point","coordinates":[-58.554164,-34.581578]}},{"type":"Feature","properties":{"id":1544,"mesa_desde":721,"mesa_hasta":725,"cant_mesas":"5","establecim":"COLEGIO CASA DEL SOL","direccion":"(141)TRIUNVIRATO 2677","dne_seccion":52,"dne_distri":2,"circuito":"00384","electores":1757,"votantes":1425,"positivos":1332,"total_parcodigo":643,"vot_parcodigo":510,"cartodb_id":1119,"created_at":"2013-08-28T21:49:43Z","updated_at":"2013-08-28T21:49:43Z"},"geometry":{"type":"Point","coordinates":[-58.564117,-34.589171]}},{"type":"Feature","properties":{"id":1545,"mesa_desde":714,"mesa_hasta":720,"cant_mesas":"7","establecim":"COLEGIO EYMARD","direccion":"(66)JOSE C.PAZ 800","dne_seccion":52,"dne_distri":2,"circuito":"00384","electores":2451,"votantes":1901,"positivos":1803,"total_parcodigo":848,"vot_parcodigo":510,"cartodb_id":1120,"created_at":"2013-08-28T21:49:43Z","updated_at":"2013-08-28T21:49:43Z"},"geometry":{"type":"Point","coordinates":[-58.553314,-34.578681]}},{"type":"Feature","properties":{"id":1546,"mesa_desde":686,"mesa_hasta":692,"cant_mesas":"7","establecim":"ESCUELA EP N°10","direccion":"MITRE 5110","dne_seccion":52,"dne_distri":2,"circuito":"00384","electores":2448,"votantes":1927,"positivos":1824,"total_parcodigo":902,"vot_parcodigo":510,"cartodb_id":1121,"created_at":"2013-08-28T21:49:43Z","updated_at":"2013-08-28T21:49:43Z"},"geometry":{"type":"Point","coordinates":[-58.549125,-34.586093]}},{"type":"Feature","properties":{"id":1547,"mesa_desde":702,"mesa_hasta":705,"cant_mesas":"4","establecim":"ESCUELA EP N°30","direccion":"(70)LA CRUJIA 4664","dne_seccion":52,"dne_distri":2,"circuito":"00384","electores":1401,"votantes":1086,"positivos":1043,"total_parcodigo":494,"vot_parcodigo":510,"cartodb_id":1122,"created_at":"2013-08-28T21:49:43Z","updated_at":"2013-08-28T21:49:43Z"},"geometry":{"type":"Point","coordinates":[-58.553992,-34.575894]}},{"type":"Feature","properties":{"id":1548,"mesa_desde":693,"mesa_hasta":701,"cant_mesas":"9","establecim":"ESCUELA EP N°46","direccion":"(137)INFANTA ISABEL 2647","dne_seccion":52,"dne_distri":2,"circuito":"00384","electores":3153,"votantes":2492,"positivos":2344,"total_parcodigo":1129,"vot_parcodigo":510,"cartodb_id":1123,"created_at":"2013-08-28T21:49:43Z","updated_at":"2013-08-28T21:49:43Z"},"geometry":{"type":"Point","coordinates":[-58.562459,-34.587346]}},{"type":"Feature","properties":{"id":1549,"mesa_desde":726,"mesa_hasta":730,"cant_mesas":"5","establecim":"ESCUELA ESPECIAL N°501","direccion":"1°DE AGOSTO 2876","dne_seccion":52,"dne_distri":2,"circuito":"00384","electores":1414,"votantes":1140,"positivos":1080,"total_parcodigo":492,"vot_parcodigo":510,"cartodb_id":1124,"created_at":"2013-08-28T21:49:43Z","updated_at":"2013-08-28T21:49:43Z"},"geometry":{"type":"Point","coordinates":[-58.553639,-34.575671]}},{"type":"Feature","properties":{"id":1550,"mesa_desde":706,"mesa_hasta":713,"cant_mesas":"8","establecim":"INSTITUTO LIBERTAD","direccion":"(137)INFANTA ISABEL 2448","dne_seccion":52,"dne_distri":2,"circuito":"00384","electores":2802,"votantes":2195,"positivos":2090,"total_parcodigo":995,"vot_parcodigo":510,"cartodb_id":1125,"created_at":"2013-08-28T21:49:43Z","updated_at":"2013-08-28T21:49:43Z"},"geometry":{"type":"Point","coordinates":[-58.560323,-34.589402]}},{"type":"Feature","properties":{"id":1551,"mesa_desde":731,"mesa_hasta":733,"cant_mesas":"3","establecim":"CENTRO EDUC.COMPLEMENTARIO","direccion":"(112)GRAL.CONESA 5141","dne_seccion":52,"dne_distri":2,"circuito":"00388","electores":1058,"votantes":560,"positivos":810,"total_parcodigo":386,"vot_parcodigo":510,"cartodb_id":1126,"created_at":"2013-08-28T21:49:43Z","updated_at":"2013-08-28T21:49:43Z"},"geometry":{"type":"Point","coordinates":[-58.571991,-34.566745]}},{"type":"Feature","properties":{"id":1552,"mesa_desde":752,"mesa_hasta":758,"cant_mesas":"7","establecim":"COLEGIO JUAN M.DE PUEYRREDON","direccion":"BELGRANO(123) N°3747","dne_seccion":52,"dne_distri":2,"circuito":"00388","electores":2459,"votantes":1677,"positivos":1871,"total_parcodigo":894,"vot_parcodigo":510,"cartodb_id":1127,"created_at":"2013-08-28T21:49:43Z","updated_at":"2013-08-28T21:49:43Z"},"geometry":{"type":"Point","coordinates":[-58.565842,-34.574227]}},{"type":"Feature","properties":{"id":1553,"mesa_desde":864,"mesa_hasta":870,"cant_mesas":"7","establecim":"COLEGIO LA SAGRADA FAMILIA","direccion":"133 N°4247","dne_seccion":52,"dne_distri":2,"circuito":"00388","electores":2457,"votantes":1693,"positivos":1737,"total_parcodigo":806,"vot_parcodigo":510,"cartodb_id":1128,"created_at":"2013-08-28T21:49:43Z","updated_at":"2013-08-28T21:49:43Z"},"geometry":{"type":"Point","coordinates":[-58.57395,-34.574629]}},{"type":"Feature","properties":{"id":1554,"mesa_desde":849,"mesa_hasta":857,"cant_mesas":"9","establecim":"COLEGIO SAN PIO X","direccion":"136 N°5070 E/115 Y 117","dne_seccion":52,"dne_distri":2,"circuito":"00388","electores":3164,"votantes":2225,"positivos":2366,"total_parcodigo":1165,"vot_parcodigo":510,"cartodb_id":1129,"created_at":"2013-08-28T21:49:43Z","updated_at":"2013-08-28T21:49:43Z"},"geometry":{"type":"Point","coordinates":[-58.580424,-34.559333]}},{"type":"Feature","properties":{"id":1555,"mesa_desde":734,"mesa_hasta":745,"cant_mesas":"12","establecim":"ESCUELA EP N°26","direccion":"B°SUBOFICIALES- RUTA 8  KM.19,500","dne_seccion":52,"dne_distri":2,"circuito":"00388","electores":4214,"votantes":3177,"positivos":3279,"total_parcodigo":1738,"vot_parcodigo":510,"cartodb_id":1130,"created_at":"2013-08-28T21:49:43Z","updated_at":"2013-08-28T21:49:43Z"},"geometry":{"type":"Point","coordinates":[-58.585029,-34.563063]}},{"type":"Feature","properties":{"id":1556,"mesa_desde":815,"mesa_hasta":829,"cant_mesas":"15","establecim":"ESCUELA EP N°28","direccion":"(107)PATAGONIA 7493","dne_seccion":52,"dne_distri":2,"circuito":"00388","electores":5268,"votantes":3895,"positivos":3927,"total_parcodigo":1986,"vot_parcodigo":510,"cartodb_id":1131,"created_at":"2013-08-28T21:49:43Z","updated_at":"2013-08-28T21:49:43Z"},"geometry":{"type":"Point","coordinates":[-58.590416,-34.544837]}},{"type":"Feature","properties":{"id":1557,"mesa_desde":759,"mesa_hasta":766,"cant_mesas":"8","establecim":"ESCUELA EP N°32","direccion":"(112)CONESA 5131","dne_seccion":52,"dne_distri":2,"circuito":"00388","electores":2802,"votantes":2270,"positivos":2137,"total_parcodigo":1071,"vot_parcodigo":510,"cartodb_id":1132,"created_at":"2013-08-28T21:49:43Z","updated_at":"2013-08-28T21:49:43Z"},"geometry":{"type":"Point","coordinates":[-58.571772,-34.567041]}},{"type":"Feature","properties":{"id":1558,"mesa_desde":888,"mesa_hasta":897,"cant_mesas":"10","establecim":"ESCUELA EP N°37","direccion":"(DG.131)LIBERTAD 6845","dne_seccion":52,"dne_distri":2,"circuito":"00388","electores":3514,"votantes":2572,"positivos":2681,"total_parcodigo":1377,"vot_parcodigo":510,"cartodb_id":1133,"created_at":"2013-08-28T21:49:43Z","updated_at":"2013-08-28T21:49:43Z"},"geometry":{"type":"Point","coordinates":[-58.594441,-34.557574]}},{"type":"Feature","properties":{"id":1559,"mesa_desde":780,"mesa_hasta":788,"cant_mesas":"9","establecim":"ESCUELA EP N°5/ES N°14","direccion":"ESPAÑA 5640","dne_seccion":52,"dne_distri":2,"circuito":"00388","electores":3163,"votantes":2521,"positivos":2392,"total_parcodigo":1213,"vot_parcodigo":510,"cartodb_id":1134,"created_at":"2013-08-28T21:49:43Z","updated_at":"2013-08-28T21:49:43Z"},"geometry":{"type":"Point","coordinates":[-58.580546,-34.561275]}},{"type":"Feature","properties":{"id":1560,"mesa_desde":746,"mesa_hasta":751,"cant_mesas":"6","establecim":"ESCUELA EP N°6","direccion":"(135)RIVADAVIA 4256","dne_seccion":52,"dne_distri":2,"circuito":"00388","electores":2103,"votantes":1692,"positivos":1622,"total_parcodigo":789,"vot_parcodigo":510,"cartodb_id":1135,"created_at":"2013-08-28T21:49:43Z","updated_at":"2013-08-28T21:49:43Z"},"geometry":{"type":"Point","coordinates":[-58.575294,-34.575858]}},{"type":"Feature","properties":{"id":1561,"mesa_desde":807,"mesa_hasta":814,"cant_mesas":"8","establecim":"ESCUELA EP N°73","direccion":"(100)SALTA 4934","dne_seccion":52,"dne_distri":2,"circuito":"00388","electores":2805,"votantes":2257,"positivos":2125,"total_parcodigo":1063,"vot_parcodigo":510,"cartodb_id":1136,"created_at":"2013-08-28T21:49:43Z","updated_at":"2013-08-28T21:49:43Z"},"geometry":{"type":"Point","coordinates":[-58.565387,-34.569435]}},{"type":"Feature","properties":{"id":1562,"mesa_desde":898,"mesa_hasta":906,"cant_mesas":"9","establecim":"ESCUELA EP N°75","direccion":"SARMIENTO 1352","dne_seccion":52,"dne_distri":2,"circuito":"00388","electores":2897,"votantes":2313,"positivos":2217,"total_parcodigo":1097,"vot_parcodigo":510,"cartodb_id":1137,"created_at":"2013-08-28T21:49:43Z","updated_at":"2013-08-28T21:49:43Z"},"geometry":{"type":"Point","coordinates":[-58.594637,-34.55974]}},{"type":"Feature","properties":{"id":1563,"mesa_desde":767,"mesa_hasta":779,"cant_mesas":"13","establecim":"ESCUELA EP N°79/ES N°50","direccion":"(130)CUBA 1552","dne_seccion":52,"dne_distri":2,"circuito":"00388","electores":4562,"votantes":3670,"positivos":3479,"total_parcodigo":1774,"vot_parcodigo":510,"cartodb_id":1138,"created_at":"2013-08-28T21:49:43Z","updated_at":"2013-08-28T21:49:43Z"},"geometry":{"type":"Point","coordinates":[-58.573668,-34.557587]}},{"type":"Feature","properties":{"id":1564,"mesa_desde":837,"mesa_hasta":848,"cant_mesas":"12","establecim":"ESCUELA EP N°80","direccion":"(178)JOSE INGENIEROS 4606","dne_seccion":52,"dne_distri":2,"circuito":"00388","electores":4206,"votantes":2482,"positivos":2857,"total_parcodigo":1390,"vot_parcodigo":510,"cartodb_id":1139,"created_at":"2013-08-28T21:49:43Z","updated_at":"2013-08-28T21:49:43Z"},"geometry":{"type":"Point","coordinates":[-58.590522,-34.544302]}},{"type":"Feature","properties":{"id":1565,"mesa_desde":800,"mesa_hasta":806,"cant_mesas":"7","establecim":"ESCUELA ES N°4","direccion":"(96)ALSINA 4945","dne_seccion":52,"dne_distri":2,"circuito":"00388","electores":2455,"votantes":854,"positivos":1642,"total_parcodigo":716,"vot_parcodigo":510,"cartodb_id":1140,"created_at":"2013-08-28T21:49:43Z","updated_at":"2013-08-28T21:49:43Z"},"geometry":{"type":"Point","coordinates":[-58.564828,-34.569812]}},{"type":"Feature","properties":{"id":1566,"mesa_desde":876,"mesa_hasta":887,"cant_mesas":"12","establecim":"ESCUELA ES N°6","direccion":"SAN LORENZO 5951","dne_seccion":52,"dne_distri":2,"circuito":"00388","electores":4207,"votantes":3108,"positivos":3213,"total_parcodigo":1567,"vot_parcodigo":510,"cartodb_id":1141,"created_at":"2013-08-28T21:49:43Z","updated_at":"2013-08-28T21:49:43Z"},"geometry":{"type":"Point","coordinates":[-58.575494,-34.576446]}},{"type":"Feature","properties":{"id":1567,"mesa_desde":858,"mesa_hasta":863,"cant_mesas":"6","establecim":"ESCUELA ET N°5","direccion":"(125)AV.EVA PERON 4541","dne_seccion":52,"dne_distri":2,"circuito":"00388","electores":2104,"votantes":1405,"positivos":1583,"total_parcodigo":818,"vot_parcodigo":510,"cartodb_id":1142,"created_at":"2013-08-28T21:49:43Z","updated_at":"2013-08-28T21:49:43Z"},"geometry":{"type":"Point","coordinates":[-58.572916,-34.569928]}},{"type":"Feature","properties":{"id":1568,"mesa_desde":871,"mesa_hasta":875,"cant_mesas":"5","establecim":"ESCUELA NIÑO JESUS LA SALLE","direccion":"(125)AV.EVA PERON 3151","dne_seccion":52,"dne_distri":2,"circuito":"00388","electores":1756,"votantes":1417,"positivos":1323,"total_parcodigo":656,"vot_parcodigo":510,"cartodb_id":1143,"created_at":"2013-08-28T21:49:43Z","updated_at":"2013-08-28T21:49:43Z"},"geometry":{"type":"Point","coordinates":[-58.56072,-34.579648]}},{"type":"Feature","properties":{"id":1569,"mesa_desde":830,"mesa_hasta":836,"cant_mesas":"7","establecim":"INST.PRIVADO LASALLE","direccion":"(125)AV.EVA PERON 3151","dne_seccion":52,"dne_distri":2,"circuito":"00388","electores":2457,"votantes":1681,"positivos":1879,"total_parcodigo":885,"vot_parcodigo":510,"cartodb_id":1144,"created_at":"2013-08-28T21:49:43Z","updated_at":"2013-08-28T21:49:43Z"},"geometry":{"type":"Point","coordinates":[-58.56072,-34.579648]}},{"type":"Feature","properties":{"id":1570,"mesa_desde":789,"mesa_hasta":799,"cant_mesas":"11","establecim":"INSTITUTO REMEDIOS DE ESCALADA","direccion":"(113)SOLDADO A.FOLCH 6527","dne_seccion":52,"dne_distri":2,"circuito":"00388","electores":3863,"votantes":2573,"positivos":2932,"total_parcodigo":1462,"vot_parcodigo":510,"cartodb_id":1145,"created_at":"2013-08-28T21:49:43Z","updated_at":"2013-08-28T21:49:43Z"},"geometry":{"type":"Point","coordinates":[-58.586627,-34.551629]}},{"type":"Feature","properties":{"id":1571,"mesa_desde":216,"mesa_hasta":225,"cant_mesas":"10","establecim":"COLEGIO TIERRA DE CRECIMIENTO","direccion":"(61)LACROZE 5665","dne_seccion":52,"dne_distri":2,"circuito":"0377A","electores":3509,"votantes":2737,"positivos":2600,"total_parcodigo":1251,"vot_parcodigo":510,"cartodb_id":1732,"created_at":"2013-08-28T21:49:43Z","updated_at":"2013-08-28T21:49:43Z"},"geometry":{"type":"Point","coordinates":[-58.548056,-34.555756]}},{"type":"Feature","properties":{"id":1572,"mesa_desde":310,"mesa_hasta":320,"cant_mesas":"11","establecim":"ESCUELA EP N°31/ES N°7","direccion":"ING.HUERGO 8630","dne_seccion":52,"dne_distri":2,"circuito":"0377A","electores":3863,"votantes":2991,"positivos":2999,"total_parcodigo":1399,"vot_parcodigo":510,"cartodb_id":1733,"created_at":"2013-08-28T21:49:43Z","updated_at":"2013-08-28T21:49:43Z"},"geometry":{"type":"Point","coordinates":[-58.57732,-34.517031]}},{"type":"Feature","properties":{"id":1573,"mesa_desde":196,"mesa_hasta":205,"cant_mesas":"10","establecim":"ESCUELA EP N°44","direccion":"(154)RIO NEGRO 2561","dne_seccion":52,"dne_distri":2,"circuito":"0377A","electores":3510,"votantes":2735,"positivos":2536,"total_parcodigo":1243,"vot_parcodigo":510,"cartodb_id":1734,"created_at":"2013-08-28T21:49:43Z","updated_at":"2013-08-28T21:49:43Z"},"geometry":{"type":"Point","coordinates":[-58.567001,-34.53687]}},{"type":"Feature","properties":{"id":1574,"mesa_desde":239,"mesa_hasta":250,"cant_mesas":"12","establecim":"ESCUELA EP N°47","direccion":"(31)QUINTANA 5890","dne_seccion":52,"dne_distri":2,"circuito":"0377A","electores":4210,"votantes":2759,"positivos":3042,"total_parcodigo":1411,"vot_parcodigo":510,"cartodb_id":1735,"created_at":"2013-08-28T21:49:43Z","updated_at":"2013-08-28T21:49:43Z"},"geometry":{"type":"Point","coordinates":[-58.55368,-34.534193]}},{"type":"Feature","properties":{"id":1575,"mesa_desde":272,"mesa_hasta":285,"cant_mesas":"14","establecim":"ESCUELA EP N°50","direccion":"(59)ECHAGUE 232","dne_seccion":52,"dne_distri":2,"circuito":"0377A","electores":4910,"votantes":3725,"positivos":3673,"total_parcodigo":1778,"vot_parcodigo":510,"cartodb_id":1736,"created_at":"2013-08-28T21:49:43Z","updated_at":"2013-08-28T21:49:43Z"},"geometry":{"type":"Point","coordinates":[-58.576832,-34.529225]}},{"type":"Feature","properties":{"id":1576,"mesa_desde":292,"mesa_hasta":297,"cant_mesas":"6","establecim":"ESCUELA EP N°57","direccion":"(178)ROCA 1651","dne_seccion":52,"dne_distri":2,"circuito":"0377A","electores":2103,"votantes":1608,"positivos":1513,"total_parcodigo":716,"vot_parcodigo":510,"cartodb_id":1737,"created_at":"2013-08-28T21:49:43Z","updated_at":"2013-08-28T21:49:43Z"},"geometry":{"type":"Point","coordinates":[-58.567916,-34.52445]}},{"type":"Feature","properties":{"id":1577,"mesa_desde":286,"mesa_hasta":291,"cant_mesas":"6","establecim":"ESCUELA EP N°61","direccion":"(162)RAWSON 1945","dne_seccion":52,"dne_distri":2,"circuito":"0377A","electores":2109,"votantes":1654,"positivos":1650,"total_parcodigo":738,"vot_parcodigo":510,"cartodb_id":1738,"created_at":"2013-08-28T21:49:43Z","updated_at":"2013-08-28T21:49:43Z"},"geometry":{"type":"Point","coordinates":[-58.564816,-34.530792]}},{"type":"Feature","properties":{"id":1578,"mesa_desde":298,"mesa_hasta":309,"cant_mesas":"12","establecim":"ESCUELA EP N°65","direccion":"(29)ESTRADA 9100","dne_seccion":52,"dne_distri":2,"circuito":"0377A","electores":4207,"votantes":3317,"positivos":3133,"total_parcodigo":1509,"vot_parcodigo":510,"cartodb_id":1739,"created_at":"2013-08-28T21:49:43Z","updated_at":"2013-08-28T21:49:43Z"},"geometry":{"type":"Point","coordinates":[-58.578405,-34.512699]}},{"type":"Feature","properties":{"id":1579,"mesa_desde":226,"mesa_hasta":233,"cant_mesas":"8","establecim":"ESCUELA EP N°68","direccion":"(140)PROFESOR SIMON 1463","dne_seccion":52,"dne_distri":2,"circuito":"0377A","electores":2806,"votantes":2180,"positivos":2051,"total_parcodigo":1039,"vot_parcodigo":510,"cartodb_id":1740,"created_at":"2013-08-28T21:49:43Z","updated_at":"2013-08-28T21:49:43Z"},"geometry":{"type":"Point","coordinates":[-58.553593,-34.534124]}},{"type":"Feature","properties":{"id":1580,"mesa_desde":234,"mesa_hasta":238,"cant_mesas":"5","establecim":"ESCUELA ES N°34","direccion":"(140)PROFESOR SIMON 1463","dne_seccion":52,"dne_distri":2,"circuito":"0377A","electores":1754,"votantes":1348,"positivos":1280,"total_parcodigo":599,"vot_parcodigo":510,"cartodb_id":1741,"created_at":"2013-08-28T21:49:43Z","updated_at":"2013-08-28T21:49:43Z"},"geometry":{"type":"Point","coordinates":[-58.553517,-34.53406]}},{"type":"Feature","properties":{"id":1581,"mesa_desde":326,"mesa_hasta":334,"cant_mesas":"9","establecim":"ESCUELA ES N°8","direccion":"(162)RAWSON 1918","dne_seccion":52,"dne_distri":2,"circuito":"0377A","electores":3061,"votantes":2324,"positivos":2230,"total_parcodigo":1041,"vot_parcodigo":510,"cartodb_id":1742,"created_at":"2013-08-28T21:49:43Z","updated_at":"2013-08-28T21:49:43Z"},"geometry":{"type":"Point","coordinates":[-58.564049,-34.530604]}},{"type":"Feature","properties":{"id":1582,"mesa_desde":260,"mesa_hasta":271,"cant_mesas":"12","establecim":"ESCUELA ET N°2","direccion":"(63)PACIFICO RODRIGUEZ 5650","dne_seccion":52,"dne_distri":2,"circuito":"0377A","electores":4201,"votantes":1876,"positivos":1753,"total_parcodigo":836,"vot_parcodigo":510,"cartodb_id":1743,"created_at":"2013-08-28T21:49:43Z","updated_at":"2013-08-28T21:49:43Z"},"geometry":{"type":"Point","coordinates":[-58.561342,-34.543916]}},{"type":"Feature","properties":{"id":1583,"mesa_desde":184,"mesa_hasta":195,"cant_mesas":"12","establecim":"ESCUELA MANUEL BELGRANO","direccion":"(136)ITUZAINGO 2420","dne_seccion":52,"dne_distri":2,"circuito":"0377A","electores":4214,"votantes":2765,"positivos":3111,"total_parcodigo":1428,"vot_parcodigo":510,"cartodb_id":1744,"created_at":"2013-08-28T21:49:43Z","updated_at":"2013-08-28T21:49:43Z"},"geometry":{"type":"Point","coordinates":[-58.559888,-34.541556]}},{"type":"Feature","properties":{"id":1584,"mesa_desde":321,"mesa_hasta":325,"cant_mesas":"5","establecim":"INSTITUTO ALMAFUERTE","direccion":"EMILIO MITRE 8105","dne_seccion":52,"dne_distri":2,"circuito":"0377A","electores":1755,"votantes":1377,"positivos":1310,"total_parcodigo":626,"vot_parcodigo":510,"cartodb_id":1745,"created_at":"2013-08-28T21:49:43Z","updated_at":"2013-08-28T21:49:43Z"},"geometry":{"type":"Point","coordinates":[-58.572868,-34.519124]}},{"type":"Feature","properties":{"id":1585,"mesa_desde":251,"mesa_hasta":259,"cant_mesas":"9","establecim":"INSTITUTO CONCORDIA","direccion":"(49)LIBERTAD 7200","dne_seccion":52,"dne_distri":2,"circuito":"0377A","electores":3156,"votantes":2512,"positivos":2341,"total_parcodigo":1112,"vot_parcodigo":510,"cartodb_id":1746,"created_at":"2013-08-28T21:49:43Z","updated_at":"2013-08-28T21:49:43Z"},"geometry":{"type":"Point","coordinates":[-58.569893,-34.529823]}},{"type":"Feature","properties":{"id":1586,"mesa_desde":206,"mesa_hasta":215,"cant_mesas":"10","establecim":"INSTITUTO HOLTERS","direccion":"(65)INDEPENDENCIA 5886","dne_seccion":52,"dne_distri":2,"circuito":"0377A","electores":3507,"votantes":2485,"positivos":2310,"total_parcodigo":1135,"vot_parcodigo":510,"cartodb_id":1747,"created_at":"2013-08-28T21:49:43Z","updated_at":"2013-08-28T21:49:43Z"},"geometry":{"type":"Point","coordinates":[-58.563663,-34.543194]}},{"type":"Feature","properties":{"id":1759,"mesa_desde":69,"mesa_hasta":75,"cant_mesas":"7","establecim":"COLEGIO SANTA ROSA DE LIMA","direccion":"VILLEGAS 2471","dne_seccion":61,"dne_distri":2,"circuito":"00626","electores":2459,"votantes":1948,"positivos":1883,"total_parcodigo":747,"vot_parcodigo":510,"cartodb_id":1358,"created_at":"2013-08-28T21:49:43Z","updated_at":"2013-08-28T21:49:43Z"},"geometry":{"type":"Point","coordinates":[-58.561716,-34.677118]}},{"type":"Feature","properties":{"id":1760,"mesa_desde":28,"mesa_hasta":39,"cant_mesas":"12","establecim":"ESCUELA EP N°1/ES N°6","direccion":"H.YRIGOYEN 2462","dne_seccion":61,"dne_distri":2,"circuito":"00626","electores":4206,"votantes":3329,"positivos":3170,"total_parcodigo":1291,"vot_parcodigo":510,"cartodb_id":1359,"created_at":"2013-08-28T21:49:43Z","updated_at":"2013-08-28T21:49:43Z"},"geometry":{"type":"Point","coordinates":[-58.560384,-34.678239]}},{"type":"Feature","properties":{"id":1761,"mesa_desde":152,"mesa_hasta":154,"cant_mesas":"3","establecim":"ESCUELA EP N°101/ES N°117","direccion":"MIRO 1834 E/ZAPIOLA Y CUBA","dne_seccion":61,"dne_distri":2,"circuito":"00626","electores":1047,"votantes":831,"positivos":801,"total_parcodigo":326,"vot_parcodigo":510,"cartodb_id":1360,"created_at":"2013-08-28T21:49:43Z","updated_at":"2013-08-28T21:49:43Z"},"geometry":{"type":"Point","coordinates":[-58.572818,-34.66039]}},{"type":"Feature","properties":{"id":1762,"mesa_desde":5,"mesa_hasta":11,"cant_mesas":"7","establecim":"ESCUELA EP N°104","direccion":"CARRASCO 1476","dne_seccion":61,"dne_distri":2,"circuito":"00626","electores":2455,"votantes":1957,"positivos":1884,"total_parcodigo":738,"vot_parcodigo":510,"cartodb_id":1361,"created_at":"2013-08-28T21:49:43Z","updated_at":"2013-08-28T21:49:43Z"},"geometry":{"type":"Point","coordinates":[-58.58264,-34.67143]}},{"type":"Feature","properties":{"id":1763,"mesa_desde":76,"mesa_hasta":82,"cant_mesas":"7","establecim":"ESCUELA EP N°140/ES N°56","direccion":"RIVERA INDARTE 968","dne_seccion":61,"dne_distri":2,"circuito":"00626","electores":2454,"votantes":1951,"positivos":1815,"total_parcodigo":654,"vot_parcodigo":510,"cartodb_id":1362,"created_at":"2013-08-28T21:49:43Z","updated_at":"2013-08-28T21:49:43Z"},"geometry":{"type":"Point","coordinates":[-58.585361,-34.666809]}},{"type":"Feature","properties":{"id":1764,"mesa_desde":40,"mesa_hasta":49,"cant_mesas":"10","establecim":"ESCUELA EP N°142","direccion":"SALTA 2309","dne_seccion":61,"dne_distri":2,"circuito":"00626","electores":3505,"votantes":2779,"positivos":2704,"total_parcodigo":1069,"vot_parcodigo":510,"cartodb_id":1363,"created_at":"2013-08-28T21:49:43Z","updated_at":"2013-08-28T21:49:43Z"},"geometry":{"type":"Point","coordinates":[-58.561811,-34.675452]}},{"type":"Feature","properties":{"id":1765,"mesa_desde":50,"mesa_hasta":58,"cant_mesas":"9","establecim":"ESCUELA EP N°16","direccion":"GARIBALDI 2449","dne_seccion":61,"dne_distri":2,"circuito":"00626","electores":3152,"votantes":2472,"positivos":2426,"total_parcodigo":930,"vot_parcodigo":510,"cartodb_id":1364,"created_at":"2013-08-28T21:49:43Z","updated_at":"2013-08-28T21:49:43Z"},"geometry":{"type":"Point","coordinates":[-58.58622,-34.658109]}},{"type":"Feature","properties":{"id":1766,"mesa_desde":137,"mesa_hasta":146,"cant_mesas":"10","establecim":"ESCUELA EP N°48/ES N°94","direccion":"RAMON L.FALCON 2705","dne_seccion":61,"dne_distri":2,"circuito":"00626","electores":3503,"votantes":2503,"positivos":2681,"total_parcodigo":1065,"vot_parcodigo":510,"cartodb_id":1365,"created_at":"2013-08-28T21:49:43Z","updated_at":"2013-08-28T21:49:43Z"},"geometry":{"type":"Point","coordinates":[-58.574008,-34.671059]}},