{"type": "FeatureCollection", "features": [{"geometry": {"type": "Point", "coordinates": [-58.370438, -34.621623]}, "id": 4636, "properties": {"501_total": "620", "503_total": "646", "margin_of_victory": "26", "direccion": "AV SAN JUAN 353", "leader_total": "646", "506_total": "52", "505_total": "155", "establecim": "ESC N\u00b026 HIPOLITO YRIGOYEN", "502_total": "577", "fake_id": "1-10", "187_total": "101", "leader": "503"}}, {"geometry": {"type": "Point", "coordinates": [-58.372902, -34.622337]}, "id": 4637, "properties": {"501_total": "932", "503_total": "923", "margin_of_victory": "20", "direccion": "BOLIVAR 1235", "leader_total": "952", "506_total": "99", "505_total": "250", "establecim": "ESC N\u00b03 BERNARDINO RIVADAVIA", "502_total": "952", "fake_id": "18-31", "187_total": "173", "leader": "502"}}, {"geometry": {"type": "Point", "coordinates": [-58.373422, -34.625438]}, "id": 4638, "properties": {"501_total": "485", "503_total": "488", "margin_of_victory": "3", "direccion": "AV J DE GARAY 556/AV J DE  GARAY S/N", "leader_total": "488", "506_total": "55", "505_total": "115", "establecim": "INSTITUTO MARIA AUXILIADORA", "502_total": "449", "fake_id": "11-17", "187_total": "57", "leader": "503"}}, {"geometry": {"type": "Point", "coordinates": [-58.376803, -34.617583]}, "id": 4639, "properties": {"501_total": "981", "503_total": "840", "margin_of_victory": "141", "direccion": "AV INDEPENDENCIA 758", "leader_total": "981", "506_total": "87", "505_total": "229", "establecim": "ESC N\u00ba1 VALENTIN GOMEZ", "502_total": "827", "fake_id": "32-45", "187_total": "151", "leader": "501"}}, {"geometry": {"type": "Point", "coordinates": [-58.374165, -34.618999]}, "id": 4640, "properties": {"501_total": "473", "503_total": "424", "margin_of_victory": "4", "direccion": "PERU 946", "leader_total": "473", "506_total": "50", "505_total": "104", "establecim": "ESC N\u00ba21 HIPOLITO VIEYTES", "502_total": "469", "fake_id": "46-52", "187_total": "81", "leader": "501"}}, {"geometry": {"type": "Point", "coordinates": [-58.370616, -34.620577]}, "id": 4641, "properties": {"501_total": "640", "503_total": "673", "margin_of_victory": "33", "direccion": "HUMBERTO I\u00ba 343", "leader_total": "673", "506_total": "53", "505_total": "149", "establecim": "ESCUELA GUILLERMO RAWSON", "502_total": "600", "fake_id": "53-62", "187_total": "104", "leader": "503"}}, {"geometry": {"type": "Point", "coordinates": [-58.365989, -34.613681]}, "id": 4642, "properties": {"501_total": "104", "503_total": "600", "margin_of_victory": "209", "direccion": "AV. A. MOREAU DE JUSTO 1400  DIQUE 2", "leader_total": "600", "506_total": "12", "505_total": "15", "establecim": "UNIVERSIDAD CATOLICA ARGENTINA", "502_total": "391", "fake_id": "63-67", "187_total": "19", "leader": "503"}}, {"geometry": {"type": "Point", "coordinates": [-58.365989, -34.613681]}, "id": 4643, "properties": {"501_total": "105", "503_total": "658", "margin_of_victory": "243", "direccion": "AV. A. MOREAU DE JUSTO 1400  DIQUE 2", "leader_total": "658", "506_total": "2", "505_total": "24", "establecim": "UNIVERSIDAD CATOLICA ARGENTINA", "502_total": "415", "fake_id": "68-72", "187_total": "17", "leader": "503"}}, {"geometry": {"type": "Point", "coordinates": [-58.370583, -34.588027]}, "id": 4644, "properties": {"501_total": "977", "503_total": "400", "margin_of_victory": "577", "direccion": "LETONIA S/N Y ANT ARG", "leader_total": "977", "506_total": "35", "505_total": "93", "establecim": "EMEM N\u00ba6 PADRE C MUGICA", "502_total": "198", "fake_id": "86-94", "187_total": "29", "leader": "501"}}, {"geometry": {"type": "Point", "coordinates": [-58.370583, -34.588027]}, "id": 4645, "properties": {"501_total": "1258", "503_total": "489", "margin_of_victory": "769", "direccion": "EEUU DEL BRASIL S/N Y ANT ARG", "leader_total": "1258", "506_total": "81", "505_total": "133", "establecim": "ESC N\u00ba25 BANDERA ARGENTINA", "502_total": "330", "fake_id": "73-85", "187_total": "26", "leader": "501"}}, {"geometry": {"type": "Point", "coordinates": [-58.384322, -34.593517]}, "id": 4646, "properties": {"501_total": "330", "503_total": "2711", "margin_of_victory": "1247", "direccion": "LIBERTAD 1257", "leader_total": "2711", "506_total": "34", "505_total": "85", "establecim": "COL. NAC.N\u00ba2 D F SARMIENTO", "502_total": "1464", "fake_id": "116-136", "187_total": "54", "leader": "503"}}, {"geometry": {"type": "Point", "coordinates": [-58.384847, -34.592264]}, "id": 4647, "properties": {"501_total": "358", "503_total": "2787", "margin_of_victory": "1306", "direccion": "AV PTE QUINTANA 31", "leader_total": "2787", "506_total": "30", "505_total": "98", "establecim": "ESC N\u00ba2 D F SARMIENTO", "502_total": "1481", "fake_id": "95-115", "187_total": "55", "leader": "503"}}, {"geometry": {"type": "Point", "coordinates": [-58.381393, -34.590919]}, "id": 4648, "properties": {"501_total": "98", "503_total": "763", "margin_of_victory": "267", "direccion": "CARLOS PELLEGRINI 1515", "leader_total": "763", "506_total": "9", "505_total": "38", "establecim": "INST SUP DE LENGUAS VIVAS", "502_total": "496", "fake_id": "137-142", "187_total": "30", "leader": "503"}}, {"geometry": {"type": "Point", "coordinates": [-58.386224, -34.59694]}, "id": 4649, "properties": {"501_total": "379", "503_total": "1572", "margin_of_victory": "297", "direccion": "M T DE ALVEAR 1335", "leader_total": "1572", "506_total": "32", "505_total": "90", "establecim": "USAL FACULTAD DE CS ECONOMICAS", "502_total": "1275", "fake_id": "153-167", "187_total": "87", "leader": "503"}}, {"geometry": {"type": "Point", "coordinates": [-58.386283, -34.597015]}, "id": 4650, "properties": {"501_total": "254", "503_total": "1059", "margin_of_victory": "111", "direccion": "MARCELO T DE ALVEAR 1312", "leader_total": "1059", "506_total": "31", "505_total": "68", "establecim": "USAL FACULTAD DE PSICOLOGIA", "502_total": "948", "fake_id": "143-152", "187_total": "32", "leader": "503"}}, {"geometry": {"type": "Point", "coordinates": [-58.378846, -34.597768]}, "id": 4651, "properties": {"501_total": "224", "503_total": "545", "margin_of_victory": "111", "direccion": "PARAGUAY 834", "leader_total": "545", "506_total": "8", "505_total": "56", "establecim": "COLEGIO SAN MARON", "502_total": "434", "fake_id": "188-193", "187_total": "32", "leader": "503"}}, {"geometry": {"type": "Point", "coordinates": [-58.37702, -34.593035]}, "id": 4652, "properties": {"501_total": "400", "503_total": "1195", "margin_of_victory": "285", "direccion": "BASAVILBASO 1295", "leader_total": "1195", "506_total": "27", "505_total": "108", "establecim": "ESC N\u00ba6 FRENCH Y BERUTI", "502_total": "910", "fake_id": "168-180", "187_total": "66", "leader": "503"}}, {"geometry": {"type": "Point", "coordinates": [-58.38602, -34.59824]}, "id": 4653, "properties": {"501_total": "209", "503_total": "682", "margin_of_victory": "166", "direccion": "PARAGUAY 1318", "leader_total": "682", "506_total": "12", "505_total": "54", "establecim": "UCES UNIV. DE CS SOC Y EMP", "502_total": "516", "fake_id": "181-187", "187_total": "43", "leader": "503"}}, {"geometry": {"type": "Point", "coordinates": [-58.378125, -34.599616]}, "id": 4654, "properties": {"501_total": "430", "503_total": "1086", "margin_of_victory": "326", "direccion": "ESMERALDA 759", "leader_total": "1086", "506_total": "33", "505_total": "101", "establecim": "COLEGIO DE NUESTRA SE\u00d1ORA", "502_total": "760", "fake_id": "216-227", "187_total": "88", "leader": "503"}}, {"geometry": {"type": "Point", "coordinates": [-58.37398, -34.60266]}, "id": 4655, "properties": {"501_total": "496", "503_total": "1183", "margin_of_victory": "320", "direccion": "SAN MARTIN 458", "leader_total": "1183", "506_total": "39", "505_total": "110", "establecim": "ESC N\u00b013 GRAL SAN MARTIN", "502_total": "863", "fake_id": "194-206", "187_total": "72", "leader": "503"}}, {"geometry": {"type": "Point", "coordinates": [-58.372399, -34.602424]}, "id": 4656, "properties": {"501_total": "361", "503_total": "819", "margin_of_victory": "278", "direccion": "RECONQUISTA 461", "leader_total": "819", "506_total": "29", "505_total": "88", "establecim": "ESC N\u00b04 CATEDRAL J M ESTRADA", "502_total": "541", "fake_id": "207-215", "187_total": "44", "leader": "503"}}, {"geometry": {"type": "Point", "coordinates": [-58.391293, -34.600399]}, "id": 4657, "properties": {"501_total": "512", "503_total": "994", "margin_of_victory": "19", "direccion": "RODRIGUEZ PE\u00d1A 747", "leader_total": "994", "506_total": "52", "505_total": "146", "establecim": "ESC N\u00b05 RODRIGUEZ PE\u00d1A", "502_total": "975", "fake_id": "228-239", "187_total": "107", "leader": "503"}}, {"geometry": {"type": "Point", "coordinates": [-58.383737, -34.601674]}, "id": 4658, "properties": {"501_total": "442", "503_total": "809", "margin_of_victory": "47", "direccion": "LIBERTAD 581", "leader_total": "809", "506_total": "42", "505_total": "104", "establecim": "ESC N\u00b07 PTE ROCA", "502_total": "762", "fake_id": "240-249", "187_total": "88", "leader": "503"}}, {"geometry": {"type": "Point", "coordinates": [-58.385472, -34.600747]}, "id": 4659, "properties": {"501_total": "527", "503_total": "1160", "margin_of_victory": "20", "direccion": "TALCAHUANO 680", "leader_total": "1160", "506_total": "63", "505_total": "165", "establecim": "ESC N\u00b08 NICOLAS AVELLANEDA", "502_total": "1140", "fake_id": "250-264", "187_total": "109", "leader": "503"}}, {"geometry": {"type": "Point", "coordinates": [-58.382626, -34.606264]}, "id": 4660, "properties": {"501_total": "531", "503_total": "752", "margin_of_victory": "98", "direccion": "TTE GRAL J D PERON 1140", "leader_total": "752", "506_total": "49", "505_total": "114", "establecim": "ESC N\u00b09 FAMILIA DE CABEZON", "502_total": "654", "fake_id": "265-274", "187_total": "83", "leader": "503"}}, {"geometry": {"type": "Point", "coordinates": [-58.390844, -34.602959]}, "id": 4661, "properties": {"501_total": "421", "503_total": "538", "margin_of_victory": "9", "direccion": "LAVALLE 1681/ RODRIGUEZ  PE\u00d1A 551", "leader_total": "547", "506_total": "37", "505_total": "109", "establecim": "ESC TEC N\u00b0 19 ALEJANDRO VOLTA", "502_total": "547", "fake_id": "296-303", "187_total": "69", "leader": "502"}}, {"geometry": {"type": "Point", "coordinates": [-58.386196, -34.608121]}, "id": 4662, "properties": {"501_total": "232", "503_total": "307", "margin_of_victory": "75", "direccion": "URUGUAY 57", "leader_total": "307", "506_total": "17", "505_total": "43", "establecim": "FUND DE ALTOS EST EN CS COMERC", "502_total": "222", "fake_id": "292-295", "187_total": "42", "leader": "503"}}, {"geometry": {"type": "Point", "coordinates": [-58.39125, -34.604422]}, "id": 4663, "properties": {"501_total": "434", "503_total": "553", "margin_of_victory": "12", "direccion": "AV CORRIENTES 1723", "leader_total": "553", "506_total": "23", "505_total": "100", "establecim": "UMSA UNIV MUSEO SOC ARGENTINO", "502_total": "541", "fake_id": "284-291", "187_total": "63", "leader": "503"}}, {"geometry": {"type": "Point", "coordinates": [-58.385768, -34.597015]}, "id": 4664, "properties": {"501_total": "496", "503_total": "649", "margin_of_victory": "87", "direccion": "MARCELO T DE ALVEAR 1312", "leader_total": "649", "506_total": "38", "505_total": "126", "establecim": "USAL FACULTAD DE PSICOLOGIA", "502_total": "562", "fake_id": "275-283", "187_total": "78", "leader": "503"}}, {"geometry": {"type": "Point", "coordinates": [-58.390248, -34.611991]}, "id": 4665, "properties": {"501_total": "828", "503_total": "1211", "margin_of_victory": "236", "direccion": "SOLIS 252", "leader_total": "1211", "506_total": "75", "505_total": "214", "establecim": "COLEGIO DON BOSCO", "502_total": "975", "fake_id": "304-318", "187_total": "102", "leader": "503"}}, {"geometry": {"type": "Point", "coordinates": [-58.385291, -34.613543]}, "id": 4666, "properties": {"501_total": "246", "503_total": "334", "margin_of_victory": "87", "direccion": "AV BELGRANO 1344", "leader_total": "334", "506_total": "15", "505_total": "56", "establecim": "INST NTRA SRA DE MONSERRAT", "502_total": "247", "fake_id": "327-330", "187_total": "36", "leader": "503"}}, {"geometry": {"type": "Point", "coordinates": [-58.388142, -34.613734]}, "id": 4667, "properties": {"501_total": "436", "503_total": "629", "margin_of_victory": "102", "direccion": "AV BELGRANO 1548", "leader_total": "629", "506_total": "35", "505_total": "100", "establecim": "INSTITUTO LOS ROBLES", "502_total": "527", "fake_id": "319-326", "187_total": "102", "leader": "503"}}, {"geometry": {"type": "Point", "coordinates": [-58.390044, -34.607781]}, "id": 4668, "properties": {"501_total": "487", "503_total": "795", "margin_of_victory": "254", "direccion": "BARTOLOME MITRE 1655", "leader_total": "795", "506_total": "36", "505_total": "132", "establecim": "INSTITUTO SANTA ROSA", "502_total": "541", "fake_id": "331-339", "187_total": "68", "leader": "503"}}, {"geometry": {"type": "Point", "coordinates": [-58.385498, -34.616563]}, "id": 4669, "properties": {"501_total": "328", "503_total": "471", "margin_of_victory": "49", "direccion": "CHILE 1371", "leader_total": "471", "506_total": "27", "505_total": "90", "establecim": "ESC N\u00b013 PCIA S DEL ESTERO", "502_total": "422", "fake_id": "363-368", "187_total": "62", "leader": "503"}}, {"geometry": {"type": "Point", "coordinates": [-58.387624, -34.614203]}, "id": 4670, "properties": {"501_total": "548", "503_total": "614", "margin_of_victory": "5", "direccion": "PTE L SAENZ PE\u00d1A 463", "leader_total": "614", "506_total": "47", "505_total": "148", "establecim": "ESC N\u00b014 GRAL M NECOCHEA", "502_total": "609", "fake_id": "348-356", "187_total": "84", "leader": "503"}}, {"geometry": {"type": "Point", "coordinates": [-58.389939, -34.616876]}, "id": 4671, "properties": {"501_total": "347", "503_total": "416", "margin_of_victory": "6", "direccion": "CHILE 1670", "leader_total": "416", "506_total": "25", "505_total": "92", "establecim": "ESC N\u00b02 FRAY C RODRIGUEZ", "502_total": "410", "fake_id": "357-362", "187_total": "46", "leader": "503"}}, {"geometry": {"type": "Point", "coordinates": [-58.382184, -34.619873]}, "id": 4672, "properties": {"501_total": "489", "503_total": "656", "margin_of_victory": "70", "direccion": "CARLOS CALVO 1140", "leader_total": "656", "506_total": "54", "505_total": "127", "establecim": "ESC N\u00b07 GRAL GUEMES", "502_total": "586", "fake_id": "369-377", "187_total": "94", "leader": "503"}}, {"geometry": {"type": "Point", "coordinates": [-58.38172, -34.617334]}, "id": 4673, "properties": {"501_total": "476", "503_total": "545", "margin_of_victory": "7", "direccion": "LIMA 761 / INDEPENDENCIA  1127", "leader_total": "545", "506_total": "49", "505_total": "126", "establecim": "UADE UNIV ARG DE LA EMPRESA", "502_total": "538", "fake_id": "340-347", "187_total": "75", "leader": "503"}}, {"geometry": {"type": "Point", "coordinates": [-58.373637, -34.610964]}, "id": 4674, "properties": {"501_total": "656", "503_total": "960", "margin_of_victory": "218", "direccion": "BOLIVAR 263 / MORENO 519", "leader_total": "960", "506_total": "45", "505_total": "127", "establecim": "COLEGIO NACIONAL BUENOS AIRES", "502_total": "742", "fake_id": "382-393", "187_total": "93", "leader": "503"}}, {"geometry": {"type": "Point", "coordinates": [-58.373237, -34.611883]}, "id": 4675, "properties": {"501_total": "216", "503_total": "326", "margin_of_victory": "71", "direccion": "BOLIVAR 346", "leader_total": "326", "506_total": "17", "505_total": "42", "establecim": "ESC POLITECNICA N\u00ba5 M BELGRANO", "502_total": "255", "fake_id": "378-381", "187_total": "28", "leader": "503"}}, {"geometry": {"type": "Point", "coordinates": [-58.37907, -34.614823]}, "id": 4676, "properties": {"501_total": "785", "503_total": "805", "margin_of_victory": "20", "direccion": "TACUARI 567", "leader_total": "805", "506_total": "60", "505_total": "179", "establecim": "ESC N\u00b03 SANCHEZ DE THOMPSON", "502_total": "671", "fake_id": "394-405", "187_total": "110", "leader": "503"}}, {"geometry": {"type": "Point", "coordinates": [-58.377141, -34.613857]}, "id": 4677, "properties": {"501_total": "682", "503_total": "643", "margin_of_victory": "39", "direccion": "VENEZUELA 771", "leader_total": "682", "506_total": "51", "505_total": "151", "establecim": "ESC N\u00ba4 CNEL ISIDRO SUAREZ", "502_total": "553", "fake_id": "406-415", "187_total": "99", "leader": "501"}}, {"geometry": {"type": "Point", "coordinates": [-58.371164, -34.611179]}, "id": 4678, "properties": {"501_total": "269", "503_total": "255", "margin_of_victory": "14", "direccion": "MORENO 343", "leader_total": "269", "506_total": "23", "505_total": "61", "establecim": "INSTITUTO SAN FRANCISCO", "502_total": "242", "fake_id": "416-420", "187_total": "28", "leader": "501"}}, {"geometry": {"type": "Point", "coordinates": [-58.375708, -34.618787]}, "id": 4679, "properties": {"501_total": "370", "503_total": "443", "margin_of_victory": "73", "direccion": "CHACABUCO 922", "leader_total": "443", "506_total": "36", "505_total": "83", "establecim": "COL N\u00b07 J M DE PUEYRREDON", "502_total": "344", "fake_id": "440-445", "187_total": "60", "leader": "503"}}, {"geometry": {"type": "Point", "coordinates": [-58.37641, -34.625341]}, "id": 4680, "properties": {"501_total": "662", "503_total": "690", "margin_of_victory": "28", "direccion": "PIEDRAS 1430", "leader_total": "690", "506_total": "63", "505_total": "162", "establecim": "ESC N\u00b03 DE RECUPERACION", "502_total": "618", "fake_id": "421-430", "187_total": "98", "leader": "503"}}, {"geometry": {"type": "Point", "coordinates": [-58.376185, -34.626566]}, "id": 4681, "properties": {"501_total": "258", "503_total": "269", "margin_of_victory": "11", "direccion": "PIEDRAS 1527", "leader_total": "269", "506_total": "29", "505_total": "55", "establecim": "ESC STA CATALINA DE ALEJANDRIA", "502_total": "254", "fake_id": "431-434", "187_total": "41", "leader": "503"}}, {"geometry": {"type": "Point", "coordinates": [-58.37406, -34.621426]}, "id": 4682, "properties": {"501_total": "319", "503_total": "365", "margin_of_victory": "46", "direccion": "PERU 1156", "leader_total": "365", "506_total": "22", "505_total": "75", "establecim": "UNIV ARGENTINA J F KENNEDY", "502_total": "286", "fake_id": "435-439", "187_total": "48", "leader": "503"}}, {"geometry": {"type": "Point", "coordinates": [-58.382686, -34.619855]}, "id": 4683, "properties": {"501_total": "341", "503_total": "397", "margin_of_victory": "56", "direccion": "CARLOS CALVO 1186", "leader_total": "397", "506_total": "26", "505_total": "81", "establecim": "COLEGIO INMACULADA CONCEPCION", "502_total": "318", "fake_id": "465-471", "187_total": "38", "leader": "503"}}, {"geometry": {"type": "Point", "coordinates": [-58.387306, -34.622626]}, "id": 4684, "properties": {"501_total": "656", "503_total": "762", "margin_of_victory": "106", "direccion": "PTE. LUIS SAENZ PE\u00d1A 1215", "leader_total": "762", "506_total": "54", "505_total": "154", "establecim": "ESC N\u00b011 DR RICARDO GUTIERREZ", "502_total": "590", "fake_id": "472-481", "187_total": "98", "leader": "503"}}, {"geometry": {"type": "Point", "coordinates": [-58.388245, -34.621211]}, "id": 4685, "properties": {"501_total": "987", "503_total": "1059", "margin_of_victory": "72", "direccion": "HUMBERTO I 1573", "leader_total": "1059", "506_total": "90", "505_total": "250", "establecim": "ESC N\u00b05 AGUSTIN ALVAREZ", "502_total": "986", "fake_id": "446-460", "187_total": "143", "leader": "503"}}, {"geometry": {"type": "Point", "coordinates": [-58.38256, -34.622146]}, "id": 4686, "properties": {"501_total": "272", "503_total": "270", "margin_of_victory": "2", "direccion": "AV SAN JUAN 1774", "leader_total": "272", "506_total": "16", "505_total": "50", "establecim": "INST ROSA ANCHORENA DE IBA\u00d1EZ", "502_total": "256", "fake_id": "461-464", "187_total": "30", "leader": "501"}}, {"geometry": {"type": "Point", "coordinates": [-58.385985, -34.624062]}, "id": 4687, "properties": {"501_total": "461", "503_total": "524", "margin_of_victory": "63", "direccion": "COCHABAMBA 1414", "leader_total": "524", "506_total": "33", "505_total": "94", "establecim": "COLEGIO DE LA PROVIDENCIA", "502_total": "348", "fake_id": "498-504", "187_total": "56", "leader": "503"}}, {"geometry": {"type": "Point", "coordinates": [-58.382825, -34.622618]}, "id": 4688, "properties": {"501_total": "577", "503_total": "658", "margin_of_victory": "81", "direccion": "SALTA 1226", "leader_total": "658", "506_total": "69", "505_total": "122", "establecim": "ESC N\u00b016 EUSTAQUIO CARDENAS", "502_total": "480", "fake_id": "489-497", "187_total": "83", "leader": "503"}}, {"geometry": {"type": "Point", "coordinates": [-58.388978, -34.625196]}, "id": 4689, "properties": {"501_total": "462", "503_total": "548", "margin_of_victory": "86", "direccion": "CONSTITUCION 1650", "leader_total": "548", "506_total": "96", "505_total": "108", "establecim": "INSTITUTO HOGAR DEL PINO", "502_total": "311", "fake_id": "482-488", "187_total": "43", "leader": "503"}}, {"geometry": {"type": "Point", "coordinates": [-58.389405, -34.629324]}, "id": 4690, "properties": {"501_total": "677", "503_total": "804", "margin_of_victory": "127", "direccion": "SOLIS 1815", "leader_total": "804", "506_total": "54", "505_total": "161", "establecim": "ESC N\u00b04 CNEL MARINA T ESPORA", "502_total": "524", "fake_id": "515-524", "187_total": "62", "leader": "503"}}, {"geometry": {"type": "Point", "coordinates": [-58.385597, -34.63209]}, "id": 4691, "properties": {"501_total": "648", "503_total": "680", "margin_of_victory": "32", "direccion": "SAN JOSE 1985", "leader_total": "680", "506_total": "47", "505_total": "150", "establecim": "ESC N\u00b06 TOMAS GUIDO", "502_total": "521", "fake_id": "505-514", "187_total": "79", "leader": "503"}}, {"geometry": {"type": "Point", "coordinates": [-58.390628, -34.625203]}, "id": 4692, "properties": {"501_total": "202", "503_total": "246", "margin_of_victory": "44", "direccion": "CONSTITUCION 1776", "leader_total": "246", "506_total": "7", "505_total": "53", "establecim": "INSTITUTO JOSE MANUEL ESTRADA", "502_total": "150", "fake_id": "525-528", "187_total": "33", "leader": "503"}}, {"geometry": {"type": "Point", "coordinates": [-58.390842, -34.625331]}, "id": 4693, "properties": {"501_total": "302", "503_total": "300", "margin_of_victory": "2", "direccion": "AV ENTRE RIOS 1428", "leader_total": "302", "506_total": "28", "505_total": "74", "establecim": "INSTITUTO JOSE MANUEL ESTRADA", "502_total": "207", "fake_id": "529-532", "187_total": "22", "leader": "501"}}, {"geometry": {"type": "Point", "coordinates": [-58.389136, -34.627355]}, "id": 4694, "properties": {"501_total": "299", "503_total": "315", "margin_of_victory": "16", "direccion": "AV JUAN DE GARAY 1684", "leader_total": "315", "506_total": "32", "505_total": "76", "establecim": "INSTITUTO VOCACIONAL DE ARTE", "502_total": "180", "fake_id": "533-536", "187_total": "22", "leader": "503"}}, {"geometry": {"type": "Point", "coordinates": [-58.392095, -34.582787]}, "id": 4695, "properties": {"501_total": "697", "503_total": "2432", "margin_of_victory": "598", "direccion": "AV FIGUEROA ALCORTA 2263", "leader_total": "2432", "506_total": "62", "505_total": "155", "establecim": "UBA FAC DE DERECHO Y CS SOCIAL", "502_total": "1834", "fake_id": "537-559", "187_total": "90", "leader": "503"}}, {"geometry": {"type": "Point", "coordinates": [-58.389276, -34.582768]}, "id": 4696, "properties": {"501_total": "247", "503_total": "1950", "margin_of_victory": "796", "direccion": "JUAN EDUARDO COUTURE 2231", "leader_total": "1950", "506_total": "31", "505_total": "74", "establecim": "CENTRO DE EXP DE GCBA", "502_total": "1154", "fake_id": "587-601", "187_total": "44", "leader": "503"}}, {"geometry": {"type": "Point", "coordinates": [-58.392239, -34.590186]}, "id": 4697, "properties": {"501_total": "248", "503_total": "2001", "margin_of_victory": "644", "direccion": "AYACUCHO 1680 VICENTE LOPEZ  1920", "leader_total": "2001", "506_total": "24", "505_total": "80", "establecim": "ESC N\u00b01 JUAN JOSE CASTELLI", "502_total": "1357", "fake_id": "568-583", "187_total": "54", "leader": "503"}}, {"geometry": {"type": "Point", "coordinates": [-58.390365, -34.588833]}, "id": 4698, "properties": {"501_total": "114", "503_total": "937", "margin_of_victory": "382", "direccion": "AYACUCHO 1849", "leader_total": "937", "506_total": "4", "505_total": "27", "establecim": "ESC N\u00b021 ANGEL GALLARDO", "502_total": "555", "fake_id": "560-567", "187_total": "14", "leader": "503"}}, {"geometry": {"type": "Point", "coordinates": [-58.392648, -34.58933]}, "id": 4699, "properties": {"501_total": "50", "503_total": "399", "margin_of_victory": "191", "direccion": "VICENTE LOPEZ 1969", "leader_total": "399", "506_total": "3", "505_total": "16", "establecim": "INSTITUTO NTRA SRA DEL PILAR", "502_total": "208", "fake_id": "584-586", "187_total": "11", "leader": "503"}}, {"geometry": {"type": "Point", "coordinates": [-58.403612, -34.590773]}, "id": 4701, "properties": {"501_total": "100", "503_total": "275", "margin_of_victory": "19", "direccion": "T M DE ANCHORENA 1644", "leader_total": "294", "506_total": "15", "505_total": "27", "establecim": "COLEGIO RIO DE LA PLATA (PRIM)", "502_total": "294", "fake_id": "648-650", "187_total": "20", "leader": "502"}}, {"geometry": {"type": "Point", "coordinates": [-58.403612, -34.590773]}, "id": 4702, "properties": {"501_total": "201", "503_total": "536", "margin_of_victory": "46", "direccion": "LAPRIDA 1635", "leader_total": "582", "506_total": "33", "505_total": "62", "establecim": "COLEGIO RIO DE LA PLATA (SEC)", "502_total": "582", "fake_id": "642-647", "187_total": "43", "leader": "502"}}, {"geometry": {"type": "Point", "coordinates": [-58.400021, -34.586259]}, "id": 4703, "properties": {"501_total": "453", "503_total": "1365", "margin_of_victory": "131", "direccion": "AGUERO 2320/AGUERO S/N", "leader_total": "1496", "506_total": "66", "505_total": "143", "establecim": "COLEGIO SAN AGUSTIN", "502_total": "1496", "fake_id": "602-616", "187_total": "109", "leader": "502"}}, {"geometry": {"type": "Point", "coordinates": [-58.405311, -34.583603]}, "id": 4704, "properties": {"501_total": "324", "503_total": "967", "margin_of_victory": "19", "direccion": "AV GRAL LAS HERAS 3086", "leader_total": "986", "506_total": "35", "505_total": "106", "establecim": "ESC N\u00b018 DR HERRERA VEGAS", "502_total": "986", "fake_id": "632-641", "187_total": "79", "leader": "502"}}, {"geometry": {"type": "Point", "coordinates": [-58.408817, -34.593101]}, "id": 4705, "properties": {"501_total": "339", "503_total": "933", "margin_of_victory": "232", "direccion": "CHARCAS 3034", "leader_total": "1165", "506_total": "55", "505_total": "132", "establecim": "INST. VOCACIONAL ARGENTINO", "502_total": "1165", "fake_id": "617-627", "187_total": "67", "leader": "502"}}, {"geometry": {"type": "Point", "coordinates": [-58.396428, -34.589815]}, "id": 4706, "properties": {"501_total": "221", "503_total": "545", "margin_of_victory": "32", "direccion": "JUNCAL 2623", "leader_total": "577", "506_total": "34", "505_total": "61", "establecim": "COLEGIO SAN TARSICIO", "502_total": "577", "fake_id": "705-710", "187_total": "47", "leader": "502"}}, {"geometry": {"type": "Point", "coordinates": [-58.404402, -34.592193]}, "id": 4707, "properties": {"501_total": "413", "503_total": "1197", "margin_of_victory": "107", "direccion": "ARENALES 2733", "leader_total": "1304", "506_total": "50", "505_total": "131", "establecim": "ESC N\u00b010 GREGORIA PEREZ", "502_total": "1304", "fake_id": "663-675", "187_total": "97", "leader": "502"}}, {"geometry": {"type": "Point", "coordinates": [-58.401614, -34.58819]}, "id": 4708, "properties": {"501_total": "403", "503_total": "1170", "margin_of_victory": "11", "direccion": "PE\u00d1A 2670", "leader_total": "1181", "506_total": "40", "505_total": "121", "establecim": "ESC N\u00b024 CORNELLA PIZARRO", "502_total": "1181", "fake_id": "651-662", "187_total": "80", "leader": "502"}}, {"geometry": {"type": "Point", "coordinates": [-58.399228, -34.587958]}, "id": 4709, "properties": {"501_total": "136", "503_total": "356", "margin_of_victory": "53", "direccion": "PACHECO DE MELO 2455", "leader_total": "409", "506_total": "12", "505_total": "33", "establecim": "INST. M BIANCHI DE COPELLO", "502_total": "409", "fake_id": "687-690", "187_total": "28", "leader": "502"}}, {"geometry": {"type": "Point", "coordinates": [-58.403628, -34.592166]}, "id": 4710, "properties": {"501_total": "338", "503_total": "1019", "margin_of_victory": "50", "direccion": "DR T M DE ANCHORENA 1553", "leader_total": "1069", "506_total": "46", "505_total": "115", "establecim": "INSTITUTO MERCEDES PACHECO", "502_total": "1069", "fake_id": "676-686", "187_total": "83", "leader": "502"}}, {"geometry": {"type": "Point", "coordinates": [-58.406004, -34.592888]}, "id": 4711, "properties": {"501_total": "391", "503_total": "1218", "margin_of_victory": "72", "direccion": "AV SANTA FE 2778", "leader_total": "1290", "506_total": "55", "505_total": "141", "establecim": "LIC NAC N\u00b01 J F ALCORTA", "502_total": "1290", "fake_id": "691-704", "187_total": "79", "leader": "502"}}, {"geometry": {"type": "Point", "coordinates": [-58.396897, -34.589425]}, "id": 4712, "properties": {"501_total": "256", "503_total": "1032", "margin_of_victory": "36", "direccion": "PACHECO DE MELO 2300", "leader_total": "1032", "506_total": "27", "505_total": "91", "establecim": "COLEGIO SAN PABLO", "502_total": "996", "fake_id": "729-739", "187_total": "64", "leader": "503"}}, {"geometry": {"type": "Point", "coordinates": [-58.397286, -34.590198]}, "id": 4713, "properties": {"501_total": "254", "503_total": "1035", "margin_of_victory": "31", "direccion": "AZCUENAGA 1630", "leader_total": "1035", "506_total": "29", "505_total": "84", "establecim": "INST N SRA DE LA MISERICORDIA", "502_total": "1004", "fake_id": "740-750", "187_total": "40", "leader": "503"}}, {"geometry": {"type": "Point", "coordinates": [-58.396427, -34.58836]}, "id": 4714, "properties": {"501_total": "457", "503_total": "1820", "margin_of_victory": "37", "direccion": "AV GRAL LAS HERAS 2214", "leader_total": "1820", "506_total": "49", "505_total": "156", "establecim": "UBA FACULTAD DE INGENIERIA", "502_total": "1783", "fake_id": "711-728", "187_total": "111", "leader": "503"}}, {"geometry": {"type": "Point", "coordinates": [-58.396694, -34.594416]}, "id": 4715, "properties": {"501_total": "119", "503_total": "731", "margin_of_victory": "175", "direccion": "ARENALES 2065", "leader_total": "731", "506_total": "15", "505_total": "38", "establecim": "COLEGIO LA ANUNCIATA", "502_total": "556", "fake_id": "762-767", "187_total": "15", "leader": "503"}}, {"geometry": {"type": "Point", "coordinates": [-58.394001, -34.597162]}, "id": 4716, "properties": {"501_total": "249", "503_total": "1247", "margin_of_victory": "213", "direccion": "MARCELO T DE ALVEAR 1851", "leader_total": "1247", "506_total": "29", "505_total": "82", "establecim": "ESC SUP COM CARLOS PELLEGRINI", "502_total": "1034", "fake_id": "778-788", "187_total": "53", "leader": "503"}}, {"geometry": {"type": "Point", "coordinates": [-58.394442, -34.595176]}, "id": 4717, "properties": {"501_total": "118", "503_total": "673", "margin_of_victory": "104", "direccion": "RIOBAMBA 1059", "leader_total": "673", "506_total": "13", "505_total": "36", "establecim": "ESCUELA ARGENTINA MODELO", "502_total": "569", "fake_id": "768-773", "187_total": "28", "leader": "503"}}, {"geometry": {"type": "Point", "coordinates": [-58.397794, -34.592664]}, "id": 4718, "properties": {"501_total": "99", "503_total": "471", "margin_of_victory": "130", "direccion": "JUNCAL 2131", "leader_total": "471", "506_total": "17", "505_total": "35", "establecim": "INST PADRE ETCHEVERRY BONEO", "502_total": "341", "fake_id": "774-777", "187_total": "11", "leader": "503"}}, {"geometry": {"type": "Point", "coordinates": [-58.400413, -34.592771]}, "id": 4719, "properties": {"501_total": "220", "503_total": "1242", "margin_of_victory": "195", "direccion": "LARREA 1254", "leader_total": "1242", "506_total": "25", "505_total": "90", "establecim": "INSTITUTO SAN MIGUEL", "502_total": "1047", "fake_id": "751-761", "187_total": "43", "leader": "503"}}, {"geometry": {"type": "Point", "coordinates": [-58.390049, -34.596764]}, "id": 4720, "properties": {"501_total": "383", "503_total": "2052", "margin_of_victory": "560", "direccion": "MONTEVIDEO 1046", "leader_total": "2052", "506_total": "33", "505_total": "95", "establecim": "COLEGIO CHAMPAGNAT", "502_total": "1492", "fake_id": "815-831", "187_total": "64", "leader": "503"}}, {"geometry": {"type": "Point", "coordinates": [-58.39512, -34.599518]}, "id": 4721, "properties": {"501_total": "158", "503_total": "947", "margin_of_victory": "202", "direccion": "AV CORDOBA 1951", "leader_total": "947", "506_total": "14", "505_total": "46", "establecim": "ESC N\u00b01 R SAENZ PE\u00d1A", "502_total": "745", "fake_id": "832-839", "187_total": "28", "leader": "503"}}, {"geometry": {"type": "Point", "coordinates": [-58.388593, -34.595953]}, "id": 4722, "properties": {"501_total": "257", "503_total": "1645", "margin_of_victory": "519", "direccion": "AV SANTA FE 1510", "leader_total": "1645", "506_total": "31", "505_total": "61", "establecim": "ESC N\u00ba3 ONESIMO LEGUIZAMON", "502_total": "1126", "fake_id": "789-801", "187_total": "62", "leader": "503"}}, {"geometry": {"type": "Point", "coordinates": [-58.38727, -34.59822]}, "id": 4723, "properties": {"501_total": "86", "503_total": "618", "margin_of_victory": "158", "direccion": "URUGUAY 936", "leader_total": "618", "506_total": "4", "505_total": "26", "establecim": "INST INM C DE M ADORATRICES", "502_total": "460", "fake_id": "802-806", "187_total": "16", "leader": "503"}}, {"geometry": {"type": "Point", "coordinates": [-58.392537, -34.598768]}, "id": 4724, "properties": {"501_total": "168", "503_total": "962", "margin_of_victory": "268", "direccion": "PARAGUAY 1766", "leader_total": "962", "506_total": "15", "505_total": "39", "establecim": "INSTITUTO DEL CARMEN", "502_total": "694", "fake_id": "807-814", "187_total": "25", "leader": "503"}}, {"geometry": {"type": "Point", "coordinates": [-58.395841, -34.597994]}, "id": 4725, "properties": {"501_total": "297", "503_total": "926", "margin_of_victory": "7", "direccion": "AYACUCHO 953", "leader_total": "933", "506_total": "37", "505_total": "98", "establecim": "ESC N\u00b01 DE RECUPERACION", "502_total": "933", "fake_id": "864-873", "187_total": "59", "leader": "502"}}, {"geometry": {"type": "Point", "coordinates": [-58.39512, -34.599518]}, "id": 4726, "properties": {"501_total": "806", "503_total": "1999", "margin_of_victory": "174", "direccion": "PARAGUAY 1950", "leader_total": "2173", "506_total": "93", "505_total": "246", "establecim": "ESC N\u00b01 R SAENZ PE\u00d1A", "502_total": "2173", "fake_id": "840-863", "187_total": "141", "leader": "502"}}, {"geometry": {"type": "Point", "coordinates": [-58.39512, -34.599518]}, "id": 4727, "properties": {"501_total": "131", "503_total": "362", "margin_of_victory": "5", "direccion": "AV CORDOBA 1951", "leader_total": "367", "506_total": "13", "505_total": "41", "establecim": "ESC N\u00b01 R SAENZ PE\u00d1A", "502_total": "367", "fake_id": "874-878", "187_total": "26", "leader": "502"}}, {"geometry": {"type": "Point", "coordinates": [-58.41055, -34.594653]}, "id": 4728, "properties": {"501_total": "111", "503_total": "240", "margin_of_victory": "41", "direccion": "GALLO 1341", "leader_total": "281", "506_total": "16", "505_total": "41", "establecim": "COLEGIO ALETHEIA", "502_total": "281", "fake_id": "896-898", "187_total": "31", "leader": "502"}}, {"geometry": {"type": "Point", "coordinates": [-58.407507, -34.594547]}, "id": 4729, "properties": {"501_total": "673", "503_total": "1358", "margin_of_victory": "177", "direccion": "LAPRIDA 1235", "leader_total": "1535", "506_total": "90", "505_total": "207", "establecim": "ESC N\u00b02 JUAN LARREA", "502_total": "1535", "fake_id": "879-895", "187_total": "145", "leader": "502"}}, {"geometry": {"type": "Point", "coordinates": [-58.402425, -34.598358]}, "id": 4730, "properties": {"501_total": "421", "503_total": "774", "margin_of_victory": "121", "direccion": "LARREA 854", "leader_total": "895", "506_total": "50", "505_total": "126", "establecim": "ESC N\u00b023 BERNARDINO RIVADAVIA", "502_total": "895", "fake_id": "899-908", "187_total": "90", "leader": "502"}}, {"geometry": {"type": "Point", "coordinates": [-58.404955, -34.596539]}, "id": 4731, "properties": {"501_total": "390", "503_total": "920", "margin_of_victory": "104", "direccion": "ECUADOR 1158", "leader_total": "1024", "506_total": "59", "505_total": "157", "establecim": "ESC. N\u00b06 MANUEL BELGRANO", "502_total": "1024", "fake_id": "909-919", "187_total": "96", "leader": "502"}}, {"geometry": {"type": "Point", "coordinates": [-58.405487, -34.59523]}, "id": 4732, "properties": {"501_total": "479", "503_total": "910", "margin_of_victory": "152", "direccion": "DR. N QUIRNO COSTA 1260", "leader_total": "1062", "506_total": "69", "505_total": "180", "establecim": "INST EDMUNDO DE AMICIS", "502_total": "1062", "fake_id": "920-932", "187_total": "100", "leader": "502"}}, {"geometry": {"type": "Point", "coordinates": [-58.408604, -34.588633]}, "id": 4733, "properties": {"501_total": "128", "503_total": "254", "margin_of_victory": "27", "direccion": "BILLINGHURST 1926", "leader_total": "281", "506_total": "9", "505_total": "38", "establecim": "ALIANZA FRANCESA C. FORTABAT", "502_total": "281", "fake_id": "956-958", "187_total": "37", "leader": "502"}}, {"geometry": {"type": "Point", "coordinates": [-58.41055, -34.594653]}, "id": 4734, "properties": {"501_total": "403", "503_total": "800", "margin_of_victory": "146", "direccion": "GALLO 1341", "leader_total": "946", "506_total": "57", "505_total": "110", "establecim": "COLEGIO ALETHEIA", "502_total": "946", "fake_id": "959-968", "187_total": "75", "leader": "502"}}, {"geometry": {"type": "Point", "coordinates": [-58.414704, -34.596803]}, "id": 4735, "properties": {"501_total": "472", "503_total": "990", "margin_of_victory": "176", "direccion": "JOSE A CABRERA 3484", "leader_total": "1166", "506_total": "56", "505_total": "171", "establecim": "ESC N\u00b013 REP DE IRAN", "502_total": "1166", "fake_id": "933-944", "187_total": "109", "leader": "502"}}, {"geometry": {"type": "Point", "coordinates": [-58.412174, -34.5902]}, "id": 4736, "properties": {"501_total": "465", "503_total": "900", "margin_of_victory": "170", "direccion": "GUISE 1979", "leader_total": "1070", "506_total": "65", "505_total": "120", "establecim": "INST CORAZON DE MARIA", "502_total": "1070", "fake_id": "945-955", "187_total": "108", "leader": "502"}}, {"geometry": {"type": "Point", "coordinates": [-58.408235, -34.59882]}, "id": 4737, "properties": {"501_total": "444", "503_total": "650", "margin_of_victory": "8", "direccion": "DR T M DE ANCHORENA 855", "leader_total": "650", "506_total": "54", "505_total": "122", "establecim": "ESC N\u00b023 TOMAS DE ANCHORENA", "502_total": "642", "fake_id": "985-993", "187_total": "70", "leader": "503"}}, {"geometry": {"type": "Point", "coordinates": [-58.407623, -34.600281]}, "id": 4738, "properties": {"501_total": "402", "503_total": "669", "margin_of_victory": "28", "direccion": "JEAN JAURES 870", "leader_total": "669", "506_total": "45", "505_total": "110", "establecim": "ESC N\u00b024 PCIA DE CATAMARCA", "502_total": "641", "fake_id": "994-1002", "187_total": "91", "leader": "503"}}, {"geometry": {"type": "Point", "coordinates": [-58.411308, -34.600327]}, "id": 4739, "properties": {"501_total": "770", "503_total": "1157", "margin_of_victory": "8", "direccion": "TUCUMAN 3233/SAN LUIS 3227", "leader_total": "1157", "506_total": "82", "505_total": "226", "establecim": "ESC N\u00b08 DR ARTURO MATEO BAS", "502_total": "1149", "fake_id": "969-984", "187_total": "131", "leader": "503"}}, {"geometry": {"type": "Point", "coordinates": [-58.400383, -34.603568]}, "id": 4740, "properties": {"501_total": "699", "503_total": "1104", "margin_of_victory": "34", "direccion": "LAVALLE 2366", "leader_total": "1138", "506_total": "63", "505_total": "200", "establecim": "ESC N\u00b010 PRESIDENTE QUINTANA", "502_total": "1138", "fake_id": "1019-1033", "187_total": "122", "leader": "502"}}, {"geometry": {"type": "Point", "coordinates": [-58.405267, -34.602795]}, "id": 4741, "properties": {"501_total": "383", "503_total": "582", "margin_of_victory": "31", "direccion": "AV.PUEYRREDON 630", "leader_total": "613", "506_total": "46", "505_total": "73", "establecim": "ESC N\u00ba14 JUAN M PUEYRREDON", "502_total": "613", "fake_id": "1034-1041", "187_total": "50", "leader": "502"}}, {"geometry": {"type": "Point", "coordinates": [-58.39779, -34.600221]}, "id": 4742, "properties": {"501_total": "762", "503_total": "1167", "margin_of_victory": "61", "direccion": "AV CORDOBA 2150", "leader_total": "1228", "506_total": "75", "505_total": "241", "establecim": "UBA FACULTAD DE CS ECONOMICAS", "502_total": "1228", "fake_id": "1003-1018", "187_total": "116", "leader": "502"}}, {"geometry": {"type": "Point", "coordinates": [-58.394276, -34.601277]}, "id": 4743, "properties": {"501_total": "337", "503_total": "503", "margin_of_victory": "10", "direccion": "RIOBAMBA 696", "leader_total": "503", "506_total": "42", "505_total": "105", "establecim": "COLEGIO DE LASALLE", "502_total": "493", "fake_id": "1055-1061", "187_total": "43", "leader": "503"}}, {"geometry": {"type": "Point", "coordinates": [-58.392989, -34.606962]}, "id": 4744, "properties": {"501_total": "223", "503_total": "304", "margin_of_victory": "22", "direccion": "TTE GRAL J D PERON 1862", "leader_total": "304", "506_total": "21", "505_total": "59", "establecim": "COLEGIO SANTO TOMAS DE AQUINO", "502_total": "282", "fake_id": "1051-1054", "187_total": "28", "leader": "503"}}, {"geometry": {"type": "Point", "coordinates": [-58.392835, -34.601652]}, "id": 4745, "properties": {"501_total": "420", "503_total": "707", "margin_of_victory": "27", "direccion": "RIOBAMBA 623", "leader_total": "707", "506_total": "44", "505_total": "135", "establecim": "ESC N\u00ba2 ANTONIO BERMEJO", "502_total": "680", "fake_id": "1042-1050", "187_total": "90", "leader": "503"}}, {"geometry": {"type": "Point", "coordinates": [-58.393073, -34.603266]}, "id": 4746, "properties": {"501_total": "169", "503_total": "329", "margin_of_victory": "41", "direccion": "LAVALLE 1838", "leader_total": "329", "506_total": "19", "505_total": "52", "establecim": "INSTITUTO UNIVERSITAS", "502_total": "288", "fake_id": "1062-1065", "187_total": "45", "leader": "503"}}, {"geometry": {"type": "Point", "coordinates": [-58.393916, -34.603015]}, "id": 4747, "properties": {"501_total": "546", "503_total": "769", "margin_of_victory": "94", "direccion": "LAVALLE 1878", "leader_total": "863", "506_total": "54", "505_total": "157", "establecim": "UNIV DEL SALVADOR FILOSOFIA", "502_total": "863", "fake_id": "1066-1076", "187_total": "103", "leader": "502"}}, {"geometry": {"type": "Point", "coordinates": [-58.410139, -34.605041]}, "id": 4748, "properties": {"501_total": "440", "503_total": "589", "margin_of_victory": "66", "direccion": "VALENTIN GOMEZ 3163", "leader_total": "589", "506_total": "37", "505_total": "127", "establecim": "COLEGIO N\u00ba5 BARTOLOME MITRE", "502_total": "523", "fake_id": "1077-1084", "187_total": "52", "leader": "503"}}, {"geometry": {"type": "Point", "coordinates": [-58.406333, -34.606716]}, "id": 4749, "properties": {"501_total": "689", "503_total": "902", "margin_of_victory": "89", "direccion": "SARMIENTO 2832", "leader_total": "902", "506_total": "73", "505_total": "189", "establecim": "ESC N\u00ba16 PRESIDENTE MITRE", "502_total": "813", "fake_id": "1085-1097", "187_total": "102", "leader": "503"}}, {"geometry": {"type": "Point", "coordinates": [-58.410466, -34.604699]}, "id": 4750, "properties": {"501_total": "485", "503_total": "600", "margin_of_victory": "27", "direccion": "DR T M DE ANCHORENA 441", "leader_total": "600", "506_total": "38", "505_total": "115", "establecim": "ESC N\u00ba6 GRAL M RODRIGUEZ", "502_total": "573", "fake_id": "1098-1106", "187_total": "78", "leader": "503"}}, {"geometry": {"type": "Point", "coordinates": [-58.397437, -34.607113]}, "id": 4751, "properties": {"501_total": "831", "503_total": "1048", "margin_of_victory": "33", "direccion": "TTE GRAL J D PERON 2169", "leader_total": "1081", "506_total": "88", "505_total": "239", "establecim": "ESC CANGALLO SCHULE", "502_total": "1081", "fake_id": "1114-1129", "187_total": "151", "leader": "502"}}, {"geometry": {"type": "Point", "coordinates": [-58.398637, -34.606154]}, "id": 4752, "properties": {"501_total": "602", "503_total": "870", "margin_of_victory": "7", "direccion": "SARMIENTO 2250", "leader_total": "877", "506_total": "64", "505_total": "217", "establecim": "ESC N\u00ba14 CORNELIO SAAVEDRA", "502_total": "877", "fake_id": "1139-1150", "187_total": "108", "leader": "502"}}, {"geometry": {"type": "Point", "coordinates": [-58.403241, -34.609261]}, "id": 4753, "properties": {"501_total": "409", "503_total": "505", "margin_of_victory": "20", "direccion": "PASO 51", "leader_total": "525", "506_total": "34", "505_total": "90", "establecim": "INST ARG GALLEGO SGO APOSTOL", "502_total": "525", "fake_id": "1107-1113", "187_total": "61", "leader": "502"}}, {"geometry": {"type": "Point", "coordinates": [-58.396619, -34.606806]}, "id": 4754, "properties": {"501_total": "490", "503_total": "623", "margin_of_victory": "26", "direccion": "JUNIN 224", "leader_total": "649", "506_total": "48", "505_total": "141", "establecim": "UBA CENTRO DE IDIOMAS", "502_total": "649", "fake_id": "1130-1138", "187_total": "79", "leader": "502"}}, {"geometry": {"type": "Point", "coordinates": [-58.410047, -34.613704]}, "id": 4755, "properties": {"501_total": "612", "503_total": "817", "margin_of_victory": "20", "direccion": "GRAL URQUIZA 277", "leader_total": "817", "506_total": "73", "505_total": "199", "establecim": "ESC N\u00ba2 M ACOSTA", "502_total": "797", "fake_id": "1177-1188", "187_total": "94", "leader": "503"}}, {"geometry": {"type": "Point", "coordinates": [-58.411618, -34.609947]}, "id": 4756, "properties": {"501_total": "799", "503_total": "1042", "margin_of_victory": "66", "direccion": "DR T M DE ANCHORENA 41", "leader_total": "1042", "506_total": "88", "505_total": "226", "establecim": "INSTITUTO ARCANGEL SAN MIGUEL", "502_total": "976", "fake_id": "1163-1176", "187_total": "97", "leader": "503"}}, {"geometry": {"type": "Point", "coordinates": [-58.41237, -34.612253]}, "id": 4757, "properties": {"501_total": "736", "503_total": "949", "margin_of_victory": "91", "direccion": "HIPOLITO YRIGOYEN 3242", "leader_total": "949", "506_total": "69", "505_total": "196", "establecim": "UBA FACULTAD DE PSICOLOGIA", "502_total": "858", "fake_id": "1151-1162", "187_total": "87", "leader": "503"}}, {"geometry": {"type": "Point", "coordinates": [-58.411549, -34.617806]}, "id": 4758, "properties": {"501_total": "809", "503_total": "916", "margin_of_victory": "107", "direccion": "AGRELO 3231", "leader_total": "916", "506_total": "65", "505_total": "203", "establecim": "ESC N\u00ba12 REP DEL PARAGUAY", "502_total": "704", "fake_id": "1202-1213", "187_total": "123", "leader": "503"}}, {"geometry": {"type": "Point", "coordinates": [-58.405848, -34.61537]}, "id": 4759, "properties": {"501_total": "870", "503_total": "909", "margin_of_victory": "39", "direccion": "CATAMARCA 462", "leader_total": "909", "506_total": "92", "505_total": "216", "establecim": "ESC N\u00ba5 PAUL GROUSSAC", "502_total": "825", "fake_id": "1189-1201", "187_total": "126", "leader": "503"}}, {"geometry": {"type": "Point", "coordinates": [-58.402805, -34.614591]}, "id": 4760, "properties": {"501_total": "423", "503_total": "542", "margin_of_victory": "80", "direccion": "AV BELGRANO 2584", "leader_total": "542", "506_total": "51", "505_total": "122", "establecim": "CIRC DE SUBOFICIALES DE LA PFA", "502_total": "462", "fake_id": "1233-1239", "187_total": "82", "leader": "503"}}, {"geometry": {"type": "Point", "coordinates": [-58.403425, -34.61846]}, "id": 4761, "properties": {"501_total": "448", "503_total": "598", "margin_of_victory": "51", "direccion": "AV JUJUY 780", "leader_total": "598", "506_total": "50", "505_total": "125", "establecim": "ENET N\u00b025 FRAY LUIS BELTRAN", "502_total": "547", "fake_id": "1225-1232", "187_total": "72", "leader": "503"}}, {"geometry": {"type": "Point", "coordinates": [-58.402652, -34.617613]}, "id": 4762, "properties": {"501_total": "662", "503_total": "820", "margin_of_victory": "18", "direccion": "SAAVEDRA 695", "leader_total": "820", "506_total": "69", "505_total": "166", "establecim": "ESC N\u00b06 GUILLERMO CORREA", "502_total": "802", "fake_id": "1214-1224", "187_total": "109", "leader": "503"}}, {"geometry": {"type": "Point", "coordinates": [-58.401434, -34.612077]}, "id": 4763, "properties": {"501_total": "278", "503_total": "285", "margin_of_victory": "7", "direccion": "ADOLFO ALSINA 2499", "leader_total": "285", "506_total": "24", "505_total": "71", "establecim": "ESC N\u00ba1 ESTEBAN DE LUCA", "502_total": "248", "fake_id": "1243-1246", "187_total": "29", "leader": "503"}}, {"geometry": {"type": "Point", "coordinates": [-58.405523, -34.611836]}, "id": 4764, "properties": {"501_total": "174", "503_total": "248", "margin_of_victory": "51", "direccion": "AV JUJUY 150", "leader_total": "248", "506_total": "27", "505_total": "43", "establecim": "LICEO N\u00ba10 RICARDO ROJAS", "502_total": "197", "fake_id": "1240-1242", "187_total": "33", "leader": "503"}}, {"geometry": {"type": "Point", "coordinates": [-58.400734, -34.607863]}, "id": 4765, "properties": {"501_total": "678", "503_total": "899", "margin_of_victory": "221", "direccion": "BARTOLOME MITRE 2455", "leader_total": "899", "506_total": "60", "505_total": "165", "establecim": "COLEGIO SAN JOSE", "502_total": "671", "fake_id": "1267-1277", "187_total": "78", "leader": "503"}}, {"geometry": {"type": "Point", "coordinates": [-58.400014, -34.616223]}, "id": 4766, "properties": {"501_total": "646", "503_total": "821", "margin_of_victory": "77", "direccion": "MEXICO 2383", "leader_total": "821", "506_total": "71", "505_total": "166", "establecim": "ESC N\u00b015 NARCISO DE LAPRIDA", "502_total": "744", "fake_id": "1247-1257", "187_total": "95", "leader": "503"}}, {"geometry": {"type": "Point", "coordinates": [-58.396298, -34.613139]}, "id": 4767, "properties": {"501_total": "540", "503_total": "652", "margin_of_victory": "34", "direccion": "MORENO 2104", "leader_total": "652", "506_total": "73", "505_total": "152", "establecim": "ESC N\u00b09 MARIANO MORENO", "502_total": "618", "fake_id": "1258-1266", "187_total": "78", "leader": "503"}}, {"geometry": {"type": "Point", "coordinates": [-58.396571, -34.612859]}, "id": 4768, "properties": {"501_total": "437", "503_total": "517", "margin_of_victory": "50", "direccion": "MORENO 2135", "leader_total": "517", "506_total": "41", "505_total": "139", "establecim": "ESC N\u00ba34 MONSE\u00d1OR DE ANDREA", "502_total": "467", "fake_id": "1278-1284", "187_total": "41", "leader": "503"}}, {"geometry": {"type": "Point", "coordinates": [-58.399147, -34.617533]}, "id": 4769, "properties": {"501_total": "465", "503_total": "681", "margin_of_victory": "65", "direccion": "CHILE 2032", "leader_total": "681", "506_total": "64", "505_total": "161", "establecim": "COL EUSKAL ECHEA", "502_total": "616", "fake_id": "1297-1305", "187_total": "96", "leader": "503"}}, {"geometry": {"type": "Point", "coordinates": [-58.392657, -34.612641]}, "id": 4770, "properties": {"501_total": "239", "503_total": "326", "margin_of_victory": "51", "direccion": "MORENO 1859", "leader_total": "326", "506_total": "19", "505_total": "68", "establecim": "COL ISABEL CONDE DE HERNANDEZ", "502_total": "275", "fake_id": "1293-1296", "187_total": "45", "leader": "503"}}, {"geometry": {"type": "Point", "coordinates": [-58.391902, -34.617497]}, "id": 4771, "properties": {"501_total": "479", "503_total": "589", "margin_of_victory": "9", "direccion": "AV ENTRE RIOS 757", "leader_total": "589", "506_total": "45", "505_total": "116", "establecim": "ESC DE COM N\u00b05 J DE SAN MARTIN", "502_total": "580", "fake_id": "1285-1292", "187_total": "49", "leader": "503"}}, {"geometry": {"type": "Point", "coordinates": [-58.395939, -34.610684]}, "id": 4772, "properties": {"501_total": "258", "503_total": "361", "margin_of_victory": "23", "direccion": "HIPOLITO YRIGOYEN 2084", "leader_total": "361", "506_total": "26", "505_total": "83", "establecim": "INSTITUTO DON ORIONE", "502_total": "338", "fake_id": "1306-1310", "187_total": "33", "leader": "503"}}, {"geometry": {"type": "Point", "coordinates": [-58.393211, -34.610885]}, "id": 4773, "properties": {"501_total": "286", "503_total": "377", "margin_of_victory": "1", "direccion": "COMBATE DE LOS POZOS 146", "leader_total": "377", "506_total": "33", "505_total": "89", "establecim": "INSTITUTO SUP DE VIAJANTES", "502_total": "376", "fake_id": "1311-1315", "187_total": "38", "leader": "503"}}, {"geometry": {"type": "Point", "coordinates": [-58.394281, -34.606932]}, "id": 4774, "properties": {"501_total": "565", "503_total": "750", "margin_of_victory": "62", "direccion": "TTE GRAL J D PERON 1955", "leader_total": "750", "506_total": "69", "505_total": "131", "establecim": "POLIDEPORTIVO CANGALLO SCHULE", "502_total": "688", "fake_id": "1316-1325", "187_total": "79", "leader": "503"}}, {"geometry": {"type": "Point", "coordinates": [-58.410569, -34.621786]}, "id": 4775, "properties": {"501_total": "842", "503_total": "1209", "margin_of_victory": "152", "direccion": "24 DE NOVIEMBRE 950", "leader_total": "1209", "506_total": "104", "505_total": "230", "establecim": "COLEGIO SANTA CRUZ", "502_total": "1057", "fake_id": "1338-1351", "187_total": "141", "leader": "503"}}, {"geometry": {"type": "Point", "coordinates": [-58.410085, -34.623556]}, "id": 4776, "properties": {"501_total": "764", "503_total": "982", "margin_of_victory": "103", "direccion": "HUMBERTO I 3171", "leader_total": "982", "506_total": "76", "505_total": "199", "establecim": "ESC N\u00b011 JOSE FEDERICO MORENO", "502_total": "879", "fake_id": "1326-1337", "187_total": "147", "leader": "503"}}, {"geometry": {"type": "Point", "coordinates": [-58.404576, -34.625789]}, "id": 4777, "properties": {"501_total": "1106", "503_total": "1188", "margin_of_victory": "82", "direccion": "COCHABAMBA 2830", "leader_total": "1188", "506_total": "103", "505_total": "289", "establecim": "ENET N\u00b011 MANUEL BELGRANO", "502_total": "1065", "fake_id": "1384-1399", "187_total": "149", "leader": "503"}}, {"geometry": {"type": "Point", "coordinates": [-58.401631, -34.626987]}, "id": 4778, "properties": {"501_total": "271", "503_total": "336", "margin_of_victory": "65", "direccion": "AV JUJUY 1471", "leader_total": "336", "506_total": "38", "505_total": "74", "establecim": "ESC N\u00b010 F DE GURRUCHAGA", "502_total": "236", "fake_id": "1400-1403", "187_total": "32", "leader": "503"}}, {"geometry": {"type": "Point", "coordinates": [-58.407546, -34.620274]}, "id": 4779, "properties": {"501_total": "575", "503_total": "702", "margin_of_victory": "98", "direccion": "LA RIOJA 850", "leader_total": "702", "506_total": "67", "505_total": "141", "establecim": "ESC N\u00b03 RUFINO SANCHEZ", "502_total": "604", "fake_id": "1352-1360", "187_total": "92", "leader": "503"}}, {"geometry": {"type": "Point", "coordinates": [-58.404928, -34.621454]}, "id": 4780, "properties": {"501_total": "565", "503_total": "638", "margin_of_victory": "73", "direccion": "CARLOS CALVO 2827", "leader_total": "638", "506_total": "60", "505_total": "161", "establecim": "ESC N\u00ba17 LUIS CHORROARIN", "502_total": "493", "fake_id": "1369-1376", "187_total": "70", "leader": "503"}}, {"geometry": {"type": "Point", "coordinates": [-58.407159, -34.622579]}, "id": 4781, "properties": {"501_total": "490", "503_total": "638", "margin_of_victory": "117", "direccion": "LA RIOJA 1042", "leader_total": "638", "506_total": "53", "505_total": "150", "establecim": "ESC NORM SUP N\u00b08 PTE J A ROCA", "502_total": "521", "fake_id": "1361-1368", "187_total": "77", "leader": "503"}}, {"geometry": {"type": "Point", "coordinates": [-58.402217, -34.624423]}, "id": 4782, "properties": {"501_total": "454", "503_total": "548", "margin_of_victory": "94", "direccion": "AV JUJUY 1241", "leader_total": "548", "506_total": "49", "505_total": "100", "establecim": "INSTITUTO SAN CRISTOBAL", "502_total": "448", "fake_id": "1377-1383", "187_total": "150", "leader": "503"}}, {"geometry": {"type": "Point", "coordinates": [-58.391557, -34.624512]}, "id": 4783, "properties": {"501_total": "388", "503_total": "548", "margin_of_victory": "49", "direccion": "AV ENTRE RIOS 1341", "leader_total": "548", "506_total": "38", "505_total": "115", "establecim": "ESC N\u00b021 CARLOS PELLEGRINI", "502_total": "499", "fake_id": "1415-1421", "187_total": "68", "leader": "503"}}, {"geometry": {"type": "Point", "coordinates": [-58.391546, -34.624728]}, "id": 4784, "properties": {"501_total": "468", "503_total": "644", "margin_of_victory": "111", "direccion": "AV ENTRE RIOS 1359", "leader_total": "644", "506_total": "49", "505_total": "153", "establecim": "ESC N\u00b022 CARLOS PELLEGRINI", "502_total": "533", "fake_id": "1422-1429", "187_total": "85", "leader": "503"}}, {"geometry": {"type": "Point", "coordinates": [-58.397438, -34.620287]}, "id": 4785, "properties": {"501_total": "750", "503_total": "929", "margin_of_victory": "95", "direccion": "PASCO 961", "leader_total": "929", "506_total": "68", "505_total": "207", "establecim": "ESC N\u00b023 GRAL VIAMONTE", "502_total": "834", "fake_id": "1430-1441", "187_total": "121", "leader": "503"}}, {"geometry": {"type": "Point", "coordinates": [-58.397294, -34.622992]}, "id": 4786, "properties": {"501_total": "684", "503_total": "868", "margin_of_victory": "81", "direccion": "AV SAN JUAN 2277", "leader_total": "868", "506_total": "52", "505_total": "204", "establecim": "ESC N\u00b025 GERVASIO A DE POSADAS", "502_total": "787", "fake_id": "1404-1414", "187_total": "103", "leader": "503"}}, {"geometry": {"type": "Point", "coordinates": [-58.396538, -34.618584]}, "id": 4787, "properties": {"501_total": "626", "503_total": "786", "margin_of_victory": "132", "direccion": "AV INDEPENDENCIA 2140", "leader_total": "786", "506_total": "61", "505_total": "172", "establecim": "INSTITUTO NTRA SRA DEL HUERTO", "502_total": "654", "fake_id": "1442-1451", "187_total": "94", "leader": "503"}}, {"geometry": {"type": "Point", "coordinates": [-58.396307, -34.631149]}, "id": 4788, "properties": {"501_total": "468", "503_total": "573", "margin_of_victory": "105", "direccion": "PICHINCHA 1873", "leader_total": "573", "506_total": "44", "505_total": "131", "establecim": "ESC N\u00b026.B.MIGUEL DE AZCUENAGA", "502_total": "464", "fake_id": "1481-1487", "187_total": "70", "leader": "503"}}, {"geometry": {"type": "Point", "coordinates": [-58.402172, -34.633486]}, "id": 4789, "properties": {"501_total": "951", "503_total": "1251", "margin_of_victory": "202", "direccion": "CATULO CASTILLO 2750", "leader_total": "1251", "506_total": "107", "505_total": "278", "establecim": "INSTITUTO FELIX F BERNASCONI", "502_total": "1049", "fake_id": "1452-1466", "187_total": "159", "leader": "503"}}, {"geometry": {"type": "Point", "coordinates": [-58.399205, -34.635576]}, "id": 4790, "properties": {"501_total": "777", "503_total": "1143", "margin_of_victory": "323", "direccion": "JUJUY 2179/RONDEAU 2626", "leader_total": "1143", "506_total": "80", "505_total": "241", "establecim": "INSTITUTO NTRA SRA DE LUJAN", "502_total": "820", "fake_id": "1467-1480", "187_total": "106", "leader": "503"}}, {"geometry": {"type": "Point", "coordinates": [-58.406012, -34.632524]}, "id": 4791, "properties": {"501_total": "773", "503_total": "956", "margin_of_victory": "109", "direccion": "LA RIOJA 1846", "leader_total": "956", "506_total": "81", "505_total": "220", "establecim": "ESC N\u00b02 JOSE MARIA GUTIERREZ", "502_total": "847", "fake_id": "1503-1514", "187_total": "113", "leader": "503"}}, {"geometry": {"type": "Point", "coordinates": [-58.404878, -34.632072]}, "id": 4792, "properties": {"501_total": "637", "503_total": "837", "margin_of_victory": "42", "direccion": "DEAN FUNES 1821", "leader_total": "837", "506_total": "77", "505_total": "204", "establecim": "ESC SUP N\u00b011 RICARDO LEVENE", "502_total": "795", "fake_id": "1488-1498", "187_total": "110", "leader": "503"}}, {"geometry": {"type": "Point", "coordinates": [-58.409938, -34.630713]}, "id": 4793, "properties": {"501_total": "258", "503_total": "304", "margin_of_victory": "29", "direccion": "24 DE NOVIEMBRE 1665", "leader_total": "304", "506_total": "28", "505_total": "64", "establecim": "INSTITUTO SAN VICENTE DE PAUL", "502_total": "275", "fake_id": "1499-1502", "187_total": "44", "leader": "503"}}, {"geometry": {"type": "Point", "coordinates": [-58.409026, -34.644117]}, "id": 4794, "properties": {"501_total": "297", "503_total": "403", "margin_of_victory": "106", "direccion": "JOSE A CORTEJARENA 3350", "leader_total": "403", "506_total": "35", "505_total": "72", "establecim": "ESC DE RECUPERACION N\u00ba5", "502_total": "193", "fake_id": "1531-1534", "187_total": "20", "leader": "503"}}, {"geometry": {"type": "Point", "coordinates": [-58.408786, -34.643594]}, "id": 4795, "properties": {"501_total": "348", "503_total": "440", "margin_of_victory": "92", "direccion": "ELIA 473", "leader_total": "440", "506_total": "31", "505_total": "98", "establecim": "ESC N\u00b019 PROV DE FORMOSA", "502_total": "266", "fake_id": "1526-1530", "187_total": "39", "leader": "503"}}, {"geometry": {"type": "Point", "coordinates": [-58.411275, -34.63907]}, "id": 4796, "properties": {"501_total": "782", "503_total": "1002", "margin_of_victory": "220", "direccion": "AV ALMAFUERTE 66", "leader_total": "1002", "506_total": "58", "505_total": "182", "establecim": "ESC N\u00ba2 PATRICIOS", "502_total": "555", "fake_id": "1515-1525", "187_total": "62", "leader": "503"}}, {"geometry": {"type": "Point", "coordinates": [-58.403041, -34.639301]}, "id": 4797, "properties": {"501_total": "673", "503_total": "849", "margin_of_victory": "176", "direccion": "ZAVALETA 204", "leader_total": "849", "506_total": "60", "505_total": "166", "establecim": "ENET N\u00b07 D. LAVALLE DE LAVALLE", "502_total": "564", "fake_id": "1535-1544", "187_total": "72", "leader": "503"}}, {"geometry": {"type": "Point", "coordinates": [-58.391231, -34.637312]}, "id": 4798, "properties": {"501_total": "249", "503_total": "331", "margin_of_victory": "74", "direccion": "JUAN CARLOS GOMEZ 253", "leader_total": "331", "506_total": "22", "505_total": "87", "establecim": "ESC DE COM N\u00b018 R DE SUECIA", "502_total": "257", "fake_id": "1545-1548", "187_total": "32", "leader": "503"}}, {"geometry": {"type": "Point", "coordinates": [-58.392814, -34.634906]}, "id": 4799, "properties": {"501_total": "341", "503_total": "430", "margin_of_victory": "89", "direccion": "AV CASEROS 2152", "leader_total": "430", "506_total": "20", "505_total": "75", "establecim": "ESC N\u00b018 JUAN E PESTALOZZI", "502_total": "297", "fake_id": "1549-1553", "187_total": "36", "leader": "503"}}, {"geometry": {"type": "Point", "coordinates": [-58.390331, -34.656728]}, "id": 4800, "properties": {"501_total": "1547", "503_total": "704", "margin_of_victory": "843", "direccion": "LAFAYETTE 1879", "leader_total": "1547", "506_total": "35", "505_total": "154", "establecim": "ESC N\u00b0 11 REPUBLICA DE HAITI", "502_total": "312", "fake_id": "1554-1566", "187_total": "45", "leader": "501"}}, {"geometry": {"type": "Point", "coordinates": [-58.3962, -34.642714]}, "id": 4801, "properties": {"501_total": "766", "503_total": "328", "margin_of_victory": "438", "direccion": "AV AMANCIO ALCORTA 2502", "leader_total": "766", "506_total": "27", "505_total": "62", "establecim": "ESC N\u00b025 MARCOS PAZ", "502_total": "139", "fake_id": "1578-1583", "187_total": "9", "leader": "501"}}, {"geometry": {"type": "Point", "coordinates": [-58.389291, -34.650465]}, "id": 4802, "properties": {"501_total": "1285", "503_total": "698", "margin_of_victory": "587", "direccion": "AV V SARSFIELD  1351/CALIFORNIA S/N", "leader_total": "1285", "506_total": "33", "505_total": "109", "establecim": "INSTITUTO SAGRADO CORAZON", "502_total": "303", "fake_id": "1567-1577", "187_total": "38", "leader": "501"}}, {"geometry": {"type": "Point", "coordinates": [-58.411157, -34.651141]}, "id": 4803, "properties": {"501_total": "634", "503_total": "276", "margin_of_victory": "358", "direccion": "CACHI 724", "leader_total": "634", "506_total": "17", "505_total": "74", "establecim": "NTRA SRA DE LA DIV PROVIDENCIA", "502_total": "133", "fake_id": "1584-1588", "187_total": "16", "leader": "501"}}, {"geometry": {"type": "Point", "coordinates": [-58.38224, -34.636114]}, "id": 4804, "properties": {"501_total": "194", "503_total": "366", "margin_of_victory": "125", "direccion": "RAMON CARRILLO 317", "leader_total": "366", "506_total": "25", "505_total": "52", "establecim": "CENTRO CENTES N\u00ba1", "502_total": "241", "fake_id": "1614-1617", "187_total": "25", "leader": "503"}}, {"geometry": {"type": "Point", "coordinates": [-58.377766, -34.644091]}, "id": 4805, "properties": {"501_total": "327", "503_total": "498", "margin_of_victory": "90", "direccion": "JOSE A SALMUN FEIJOO 1073", "leader_total": "498", "506_total": "33", "505_total": "96", "establecim": "ESC N\u00b028 FRANCISCO P MORENO", "502_total": "408", "fake_id": "1624-1629", "187_total": "47", "leader": "503"}}, {"geometry": {"type": "Point", "coordinates": [-58.375791, -34.633751]}, "id": 4806, "properties": {"501_total": "261", "503_total": "420", "margin_of_victory": "89", "direccion": "AV MONTES DE OCA 439", "leader_total": "420", "506_total": "24", "505_total": "71", "establecim": "ESC N\u00b03 BERNARDO DE IRIGOYEN", "502_total": "331", "fake_id": "1600-1604", "187_total": "58", "leader": "503"}}, {"geometry": {"type": "Point", "coordinates": [-58.388574, -34.639723]}, "id": 4807, "properties": {"501_total": "346", "503_total": "488", "margin_of_victory": "121", "direccion": "AV AMANCIO ALCORTA 1934", "leader_total": "488", "506_total": "31", "505_total": "93", "establecim": "ESC N\u00b08 CARLOS N VERGARA", "502_total": "367", "fake_id": "1618-1623", "187_total": "51", "leader": "503"}}, {"geometry": {"type": "Point", "coordinates": [-58.379807, -34.641903]}, "id": 4808, "properties": {"501_total": "352", "503_total": "513", "margin_of_victory": "126", "direccion": "ARCAMENDIA 793", "leader_total": "513", "506_total": "44", "505_total": "86", "establecim": "ESC N\u00ba5 GRAL M M DE GUEMES", "502_total": "387", "fake_id": "1594-1599", "187_total": "50", "leader": "503"}}, {"geometry": {"type": "Point", "coordinates": [-58.379195, -34.643479]}, "id": 4809, "properties": {"501_total": "482", "503_total": "800", "margin_of_victory": "204", "direccion": "VIEYTES 942", "leader_total": "800", "506_total": "47", "505_total": "125", "establecim": "ESC TEC N\u00b010 FRAY LUIS BELTRAN", "502_total": "596", "fake_id": "1605-1613", "187_total": "75", "leader": "503"}}, {"geometry": {"type": "Point", "coordinates": [-58.380168, -34.640983]}, "id": 4810, "properties": {"501_total": "300", "503_total": "406", "margin_of_victory": "106", "direccion": "ARCAMENDIA 743", "leader_total": "406", "506_total": "33", "505_total": "82", "establecim": "LICEO COM N\u00b03 JOSE M ESTRADA", "502_total": "284", "fake_id": "1589-1593", "187_total": "44", "leader": "503"}}, {"geometry": {"type": "Point", "coordinates": [-58.381149, -34.647826]}, "id": 4811, "properties": {"501_total": "936", "503_total": "1127", "margin_of_victory": "191", "direccion": "SANTA MAGDALENA 431", "leader_total": "1127", "506_total": "42", "505_total": "214", "establecim": "ENET N\u00b014 LIBERTAD", "502_total": "723", "fake_id": "1630-1642", "187_total": "98", "leader": "503"}}, {"geometry": {"type": "Point", "coordinates": [-58.377651, -34.650056]}, "id": 4812, "properties": {"501_total": "547", "503_total": "723", "margin_of_victory": "176", "direccion": "SAN ANTONIO 682", "leader_total": "723", "506_total": "31", "505_total": "123", "establecim": "ESC N\u00b020 NIEVES E DE OROMI", "502_total": "467", "fake_id": "1658-1665", "187_total": "39", "leader": "503"}}, {"geometry": {"type": "Point", "coordinates": [-58.375712, -34.647191]}, "id": 4813, "properties": {"501_total": "502", "503_total": "613", "margin_of_victory": "111", "direccion": "CALIFORNIA 1925/CALIFORNIA  S/N", "leader_total": "613", "506_total": "38", "505_total": "135", "establecim": "ESC N\u00b024 PRESIDENTE DERQUI", "502_total": "412", "fake_id": "1651-1657", "187_total": "54", "leader": "503"}}, {"geometry": {"type": "Point", "coordinates": [-58.382522, -34.646321]}, "id": 4814, "properties": {"501_total": "560", "503_total": "670", "margin_of_victory": "110", "direccion": "SALOM 332", "leader_total": "670", "506_total": "32", "505_total": "136", "establecim": "ESC N\u00ba13 FRAY MAMERTO ESQUIU", "502_total": "465", "fake_id": "1643-1650", "187_total": "58", "leader": "503"}}, {"geometry": {"type": "Point", "coordinates": [-58.377256, -34.630083]}, "id": 4815, "properties": {"501_total": "440", "503_total": "770", "margin_of_victory": "188", "direccion": "AV MONTES DE OCA 121", "leader_total": "770", "506_total": "42", "505_total": "113", "establecim": "ENET N\u00b04 REP DEL LIBANO", "502_total": "582", "fake_id": "1688-1695", "187_total": "58", "leader": "503"}}, {"geometry": {"type": "Point", "coordinates": [-58.371493, -34.634857]}, "id": 4816, "properties": {"501_total": "428", "503_total": "745", "margin_of_victory": "104", "direccion": "WENCESLAO VILLAFA\u00d1E 1342", "leader_total": "745", "506_total": "35", "505_total": "125", "establecim": "ESC DE BELLAS ARTES M BELGRANO", "502_total": "641", "fake_id": "1680-1687", "187_total": "80", "leader": "503"}}, {"geometry": {"type": "Point", "coordinates": [-58.377165, -34.633869]}, "id": 4817, "properties": {"501_total": "433", "503_total": "762", "margin_of_victory": "147", "direccion": "GRAL HORNOS 530", "leader_total": "762", "506_total": "54", "505_total": "125", "establecim": "ESC N\u00b01 REP DE BOLIVIA", "502_total": "615", "fake_id": "1698-1706", "187_total": "57", "leader": "503"}}, {"geometry": {"type": "Point", "coordinates": [-58.374903, -34.627197]}, "id": 4818, "properties": {"501_total": "739", "503_total": "1300", "margin_of_victory": "193", "direccion": "AV CASEROS 734", "leader_total": "1300", "506_total": "59", "505_total": "205", "establecim": "ESC N\u00b07 JUAN DE GARAY", "502_total": "1107", "fake_id": "1666-1679", "187_total": "136", "leader": "503"}}, {"geometry": {"type": "Point", "coordinates": [-58.372462, -34.636958]}, "id": 4819, "properties": {"501_total": "130", "503_total": "173", "margin_of_victory": "15", "direccion": "PINZON 1480", "leader_total": "173", "506_total": "13", "505_total": "29", "establecim": "INSTITUTO SANTA FELICITAS", "502_total": "158", "fake_id": "1696-1697", "187_total": "22", "leader": "503"}}, {"geometry": {"type": "Point", "coordinates": [-58.373055, -34.643421]}, "id": 4820, "properties": {"501_total": "1009", "503_total": "2018", "margin_of_victory": "757", "direccion": "MONTES DE OCA 1356", "leader_total": "2018", "506_total": "81", "505_total": "285", "establecim": "ESC DE COM N\u00b01 J V GONZALEZ", "502_total": "1261", "fake_id": "1717-1736", "187_total": "141", "leader": "503"}}, {"geometry": {"type": "Point", "coordinates": [-58.372494, -34.648664]}, "id": 4821, "properties": {"501_total": "516", "503_total": "1053", "margin_of_victory": "358", "direccion": "AV MONTES DE OCA 1844", "leader_total": "1053", "506_total": "38", "505_total": "138", "establecim": "INSTITUTO ZACCARIA", "502_total": "695", "fake_id": "1707-1716", "187_total": "83", "leader": "503"}}, {"geometry": {"type": "Point", "coordinates": [-58.367521, -34.637017]}, "id": 4822, "properties": {"501_total": "751", "503_total": "776", "margin_of_victory": "25", "direccion": "BRANDSEN 1057", "leader_total": "776", "506_total": "27", "505_total": "134", "establecim": "ESC N\u00ba11 ANTONIO BUCICH", "502_total": "331", "fake_id": "1754-1762", "187_total": "50", "leader": "503"}}, {"geometry": {"type": "Point", "coordinates": [-58.368665, -34.638064]}, "id": 4823, "properties": {"501_total": "508", "503_total": "539", "margin_of_victory": "31", "direccion": "SUAREZ 1145", "leader_total": "539", "506_total": "23", "505_total": "96", "establecim": "ESC N\u00ba13 REPUBLICA DE CHILE", "502_total": "241", "fake_id": "1763-1768", "187_total": "32", "leader": "503"}}, {"geometry": {"type": "Point", "coordinates": [-58.367215, -34.647663]}, "id": 4824, "properties": {"501_total": "221", "503_total": "234", "margin_of_victory": "13", "direccion": "RIO CUARTO 1249", "leader_total": "234", "506_total": "23", "505_total": "58", "establecim": "ESC N\u00ba19 REP ITALIANA", "502_total": "120", "fake_id": "1769-1771", "187_total": "20", "leader": "503"}}, {"geometry": {"type": "Point", "coordinates": [-58.367919, -34.64193]}, "id": 4825, "properties": {"501_total": "729", "503_total": "701", "margin_of_victory": "28", "direccion": "ROCHA 1226", "leader_total": "729", "506_total": "45", "505_total": "206", "establecim": "ESC N\u00ba3 JUAN MARTIN GUTIERREZ", "502_total": "352", "fake_id": "1737-1745", "187_total": "53", "leader": "501"}}, {"geometry": {"type": "Point", "coordinates": [-58.365508, -34.64237]}, "id": 4826, "properties": {"501_total": "612", "503_total": "680", "margin_of_victory": "68", "direccion": "B QUINQUELA MARTIN 1081", "leader_total": "680", "506_total": "25", "505_total": "128", "establecim": "ESC N\u00ba4 JOSE J BERRUTTI", "502_total": "333", "fake_id": "1746-1753", "187_total": "57", "leader": "503"}}, {"geometry": {"type": "Point", "coordinates": [-58.359874, -34.638859]}, "id": 4827, "properties": {"501_total": "286", "503_total": "362", "margin_of_victory": "76", "direccion": "AV PEDRO DE MENDOZA 1777", "leader_total": "362", "506_total": "15", "505_total": "48", "establecim": "ENET N\u00b031 MAESTRO QUINQUELA", "502_total": "221", "fake_id": "1781-1784", "187_total": "30", "leader": "503"}}, {"geometry": {"type": "Point", "coordinates": [-58.361663, -34.63859]}, "id": 4828, "properties": {"501_total": "529", "503_total": "680", "margin_of_victory": "151", "direccion": "ARAOZ DE LAMADRID 676", "leader_total": "680", "506_total": "22", "505_total": "131", "establecim": "ESC N\u00b029 ADULTOS M BELGRANO", "502_total": "402", "fake_id": "1801-1808", "187_total": "51", "leader": "503"}}, {"geometry": {"type": "Point", "coordinates": [-58.361019, -34.639004]}, "id": 4829, "properties": {"501_total": "699", "503_total": "748", "margin_of_victory": "49", "direccion": "AV PEDRO DE MENDOZA 1835", "leader_total": "748", "506_total": "49", "505_total": "127", "establecim": "ESC N\u00b09 PEDRO DE MENDOZA", "502_total": "455", "fake_id": "1772-1780", "187_total": "54", "leader": "503"}}, {"geometry": {"type": "Point", "coordinates": [-58.361473, -34.63319]}, "id": 4830, "properties": {"501_total": "620", "503_total": "669", "margin_of_victory": "49", "direccion": "ARISTOBULO DEL VALLE 471", "leader_total": "669", "506_total": "34", "505_total": "196", "establecim": "ESC N\u00ba1 ALTE GUILLERMO BROWN", "502_total": "490", "fake_id": "1785-1793", "187_total": "73", "leader": "503"}}, {"geometry": {"type": "Point", "coordinates": [-58.359352, -34.637398]}, "id": 4831, "properties": {"501_total": "536", "503_total": "656", "margin_of_victory": "120", "direccion": "GRAL GREGORIO ARAOZ DE  LAMADRID 499", "leader_total": "656", "506_total": "23", "505_total": "91", "establecim": "ESC N\u00ba10 G ARAOZ DE LAMADRID", "502_total": "353", "fake_id": "1794-1800", "187_total": "24", "leader": "503"}}, {"geometry": {"type": "Point", "coordinates": [-58.357727, -34.634228]}, "id": 4832, "properties": {"501_total": "474", "503_total": "502", "margin_of_victory": "28", "direccion": "NECOCHEA 1136", "leader_total": "502", "506_total": "27", "505_total": "84", "establecim": "ESC N\u00ba14 AGUSTIN R CAFFARENA", "502_total": "296", "fake_id": "1809-1814", "187_total": "33", "leader": "503"}}, {"geometry": {"type": "Point", "coordinates": [-58.361714, -34.63228]}, "id": 4833, "properties": {"501_total": "480", "503_total": "634", "margin_of_victory": "154", "direccion": "WENCESLAO VILLAFA\u00d1E 453", "leader_total": "634", "506_total": "31", "505_total": "101", "establecim": "ESC N\u00ba2 DR CARLOS R VIGNALE", "502_total": "433", "fake_id": "1836-1842", "187_total": "57", "leader": "503"}}, {"geometry": {"type": "Point", "coordinates": [-58.362578, -34.627364]}, "id": 4834, "properties": {"501_total": "619", "503_total": "923", "margin_of_victory": "253", "direccion": "E BRAUN MENENDEZ 260", "leader_total": "923", "506_total": "42", "505_total": "154", "establecim": "ESC N\u00ba8 CARLOS DELLA PENA", "502_total": "670", "fake_id": "1815-1824", "187_total": "67", "leader": "503"}}, {"geometry": {"type": "Point", "coordinates": [-58.363787, -34.627643]}, "id": 4835, "properties": {"501_total": "738", "503_total": "1022", "margin_of_victory": "284", "direccion": "NECOCHEA 330", "leader_total": "1022", "506_total": "55", "505_total": "178", "establecim": "INST MADRE DE LOS EMIGRANTES", "502_total": "704", "fake_id": "1825-1835", "187_total": "105", "leader": "503"}}, {"geometry": {"type": "Point", "coordinates": [-58.372462, -34.636958]}, "id": 4836, "properties": {"501_total": "863", "503_total": "1164", "margin_of_victory": "301", "direccion": "PINZON 1480", "leader_total": "1164", "506_total": "77", "505_total": "243", "establecim": "INSTITUTO SANTA FELICITAS", "502_total": "792", "fake_id": "1843-1855", "187_total": "98", "leader": "503"}}, {"geometry": {"type": "Point", "coordinates": [-58.407461, -34.652419]}, "id": 4837, "properties": {"501_total": "630", "503_total": "753", "margin_of_victory": "123", "direccion": "AV AMANCIO ALCORTA 3402", "leader_total": "753", "506_total": "37", "505_total": "111", "establecim": "ESC N\u00b016 SABINA B DE BOZZALLA", "502_total": "411", "fake_id": "1876-1883", "187_total": "50", "leader": "503"}}, {"geometry": {"type": "Point", "coordinates": [-58.41525, -34.651673]}, "id": 4838, "properties": {"501_total": "522", "503_total": "674", "margin_of_victory": "152", "direccion": "TRAFUL 3847", "leader_total": "674", "506_total": "22", "505_total": "101", "establecim": "ESC N\u00b023 DR LORENZO ANADON", "502_total": "384", "fake_id": "1869-1875", "187_total": "55", "leader": "503"}}, {"geometry": {"type": "Point", "coordinates": [-58.409752, -34.652086]}, "id": 4839, "properties": {"501_total": "550", "503_total": "675", "margin_of_victory": "125", "direccion": "LYNCH 3536", "leader_total": "675", "506_total": "32", "505_total": "92", "establecim": "ESC N\u00b024 MARTIN GUERRICO", "502_total": "349", "fake_id": "1856-1862", "187_total": "52", "leader": "503"}}, {"geometry": {"type": "Point", "coordinates": [-58.412413, -34.652322]}, "id": 4840, "properties": {"501_total": "462", "503_total": "593", "margin_of_victory": "131", "direccion": "ALBERTO EINSTEIN 599", "leader_total": "593", "506_total": "21", "505_total": "83", "establecim": "INSTITUTO SAN VICENTE DE PAUL", "502_total": "305", "fake_id": "1863-1868", "187_total": "41", "leader": "503"}}, {"geometry": {"type": "Point", "coordinates": [-58.420909, -34.655858]}, "id": 4841, "properties": {"501_total": "438", "503_total": "520", "margin_of_victory": "82", "direccion": "AV INT FRANCISCO RABANAL  1549", "leader_total": "520", "506_total": "32", "505_total": "95", "establecim": "ENET N\u00b013 F M DEL PLUMERILLO", "502_total": "318", "fake_id": "1891-1896", "187_total": "47", "leader": "503"}}, {"geometry": {"type": "Point", "coordinates": [-58.417407, -34.657362]}, "id": 4842, "properties": {"501_total": "259", "503_total": "341", "margin_of_victory": "82", "direccion": "ECHAURI 1576", "leader_total": "341", "506_total": "19", "505_total": "71", "establecim": "ESC N\u00b06 DR ADOLFO SALDIAS", "502_total": "238", "fake_id": "1897-1900", "187_total": "25", "leader": "503"}}, {"geometry": {"type": "Point", "coordinates": [-58.417975, -34.652558]}, "id": 4843, "properties": {"501_total": "763", "503_total": "815", "margin_of_victory": "52", "direccion": "FOURNIER 3157", "leader_total": "815", "506_total": "38", "505_total": "135", "establecim": "INSTITUTO NUEVA POMPEYA", "502_total": "526", "fake_id": "1901-1910", "187_total": "77", "leader": "503"}}, {"geometry": {"type": "Point", "coordinates": [-58.418733, -34.652955]}, "id": 4844, "properties": {"501_total": "537", "503_total": "587", "margin_of_victory": "50", "direccion": "TILCARA 3178", "leader_total": "587", "506_total": "25", "505_total": "133", "establecim": "INSTITUTO SAN ANTONIO DE PADUA", "502_total": "367", "fake_id": "1884-1890", "187_total": "36", "leader": "503"}}, {"geometry": {"type": "Point", "coordinates": [-58.421121, -34.643464]}, "id": 4845, "properties": {"501_total": "376", "503_total": "564", "margin_of_victory": "94", "direccion": "ALAGON 300", "leader_total": "564", "506_total": "27", "505_total": "144", "establecim": "ESC N\u00b01 M SILVENTI DE AMATO", "502_total": "470", "fake_id": "1944-1951", "187_total": "59", "leader": "503"}}, {"geometry": {"type": "Point", "coordinates": [-58.431841, -34.653639]}, "id": 4846, "properties": {"501_total": "866", "503_total": "1156", "margin_of_victory": "282", "direccion": "ITAQUI 2050", "leader_total": "1156", "506_total": "52", "505_total": "257", "establecim": "ESC N\u00b013 P ALBERTI", "502_total": "874", "fake_id": "1911-1924", "187_total": "143", "leader": "503"}}, {"geometry": {"type": "Point", "coordinates": [-58.413312, -34.644218]}, "id": 4847, "properties": {"501_total": "803", "503_total": "997", "margin_of_victory": "170", "direccion": "CACHI 77", "leader_total": "997", "506_total": "49", "505_total": "184", "establecim": "ESC N\u00b014 PROVINCIA DE SAN LUIS", "502_total": "827", "fake_id": "1925-1936", "187_total": "107", "leader": "503"}}, {"geometry": {"type": "Point", "coordinates": [-58.432497, -34.64627]}, "id": 4848, "properties": {"501_total": "438", "503_total": "666", "margin_of_victory": "228", "direccion": "MOM 2358", "leader_total": "666", "506_total": "36", "505_total": "119", "establecim": "ESC N\u00b022", "502_total": "420", "fake_id": "1952-1958", "187_total": "54", "leader": "503"}}, {"geometry": {"type": "Point", "coordinates": [-58.421549, -34.640047]}, "id": 4849, "properties": {"501_total": "427", "503_total": "636", "margin_of_victory": "176", "direccion": "AV CASEROS 4050", "leader_total": "636", "506_total": "30", "505_total": "116", "establecim": "ESC N\u00b05 PCIA DE CORRIENTES", "502_total": "460", "fake_id": "1959-1965", "187_total": "62", "leader": "503"}}, {"geometry": {"type": "Point", "coordinates": [-58.417554, -34.644932]}, "id": 4850, "properties": {"501_total": "441", "503_total": "578", "margin_of_victory": "80", "direccion": "QUILMES 473", "leader_total": "578", "506_total": "41", "505_total": "119", "establecim": "ESC N\u00b07 AERONAUTICA ARGENTINA", "502_total": "498", "fake_id": "1937-1943", "187_total": "65", "leader": "503"}}, {"geometry": {"type": "Point", "coordinates": [-58.422574, -34.639471]}, "id": 4851, "properties": {"501_total": "394", "503_total": "537", "margin_of_victory": "143", "direccion": "MU\u00d1IZ 2147", "leader_total": "537", "506_total": "37", "505_total": "116", "establecim": "ESC N\u00b020 E FERNANDEZ ALONSO", "502_total": "385", "fake_id": "1966-1971", "187_total": "53", "leader": "503"}}, {"geometry": {"type": "Point", "coordinates": [-58.416435, -34.636593]}, "id": 4852, "properties": {"501_total": "661", "503_total": "891", "margin_of_victory": "191", "direccion": "AV BOEDO 1935", "leader_total": "891", "506_total": "63", "505_total": "170", "establecim": "ESC N\u00b023 PCIA DE ENTRE RIOS", "502_total": "700", "fake_id": "1996-2005", "187_total": "105", "leader": "503"}}, {"geometry": {"type": "Point", "coordinates": [-58.420145, -34.632042]}, "id": 4853, "properties": {"501_total": "688", "503_total": "825", "margin_of_victory": "110", "direccion": "AV JUAN DE GARAY 3972", "leader_total": "825", "506_total": "53", "505_total": "190", "establecim": "ESC N\u00b026 RCA DE COLOMBIA", "502_total": "715", "fake_id": "1986-1995", "187_total": "117", "leader": "503"}}, {"geometry": {"type": "Point", "coordinates": [-58.414463, -34.634088]}, "id": 4854, "properties": {"501_total": "883", "503_total": "1176", "margin_of_victory": "177", "direccion": "MAZA 1913/1935", "leader_total": "1176", "506_total": "92", "505_total": "269", "establecim": "ESC N\u00b08 ALMAFUERTE", "502_total": "999", "fake_id": "1972-1985", "187_total": "143", "leader": "503"}}, {"geometry": {"type": "Point", "coordinates": [-58.422938, -34.62905]}, "id": 4855, "properties": {"501_total": "489", "503_total": "482", "margin_of_victory": "40", "direccion": "CONSTITUCION 4154", "leader_total": "529", "506_total": "57", "505_total": "114", "establecim": "ESC N\u00b022 M ZUVIRIA", "502_total": "529", "fake_id": "2014-2020", "187_total": "63", "leader": "502"}}, {"geometry": {"type": "Point", "coordinates": [-58.422524, -34.62987]}, "id": 4856, "properties": {"501_total": "675", "503_total": "792", "margin_of_victory": "66", "direccion": "TARIJA 4136", "leader_total": "792", "506_total": "71", "505_total": "187", "establecim": "ESC N\u00b025 PAULA A DE SARMIENTO", "502_total": "726", "fake_id": "2033-2042", "187_total": "93", "leader": "503"}}, {"geometry": {"type": "Point", "coordinates": [-58.409782, -34.62907]}, "id": 4857, "properties": {"501_total": "855", "503_total": "894", "margin_of_victory": "39", "direccion": "24 DE NOVIEMBRE 1536", "leader_total": "894", "506_total": "80", "505_total": "159", "establecim": "ESC N\u00b07 OLEGARIO V ANDRADE", "502_total": "850", "fake_id": "2021-2032", "187_total": "97", "leader": "503"}}, {"geometry": {"type": "Point", "coordinates": [-58.424901, -34.632154]}, "id": 4858, "properties": {"501_total": "556", "503_total": "595", "margin_of_victory": "32", "direccion": "AV JUAN DE GARAY 4353", "leader_total": "595", "506_total": "58", "505_total": "144", "establecim": "INSTITUTO MARIA AUXILIADORA", "502_total": "563", "fake_id": "2006-2013", "187_total": "86", "leader": "503"}}, {"geometry": {"type": "Point", "coordinates": [-58.416246, -34.621792]}, "id": 4859, "properties": {"501_total": "424", "503_total": "541", "margin_of_victory": "33", "direccion": "AV BOEDO 760", "leader_total": "574", "506_total": "54", "505_total": "133", "establecim": "ENET N\u00b029 RECONQUISTA DE BS AS", "502_total": "574", "fake_id": "2056-2062", "187_total": "71", "leader": "502"}}, {"geometry": {"type": "Point", "coordinates": [-58.419304, -34.623799]}, "id": 4860, "properties": {"501_total": "847", "503_total": "1031", "margin_of_victory": "10", "direccion": "CASTRO 954/CASTRO S/N", "leader_total": "1041", "506_total": "100", "505_total": "197", "establecim": "ESC N\u00b014 INTENDENTE ALVEAR", "502_total": "1041", "fake_id": "2043-2055", "187_total": "161", "leader": "502"}}, {"geometry": {"type": "Point", "coordinates": [-58.409933, -34.621086]}, "id": 4861, "properties": {"501_total": "376", "503_total": "454", "margin_of_victory": "25", "direccion": "ESTADOS UNIDOS 3141", "leader_total": "479", "506_total": "51", "505_total": "103", "establecim": "ESC N\u00b015 CNEL R L FALCON", "502_total": "479", "fake_id": "2063-2068", "187_total": "66", "leader": "502"}}, {"geometry": {"type": "Point", "coordinates": [-58.426451, -34.627456]}, "id": 4862, "properties": {"501_total": "1095", "503_total": "1372", "margin_of_victory": "111", "direccion": "AV LA PLATA 1038 / AV LA PLATA  S/N", "leader_total": "1483", "506_total": "169", "505_total": "306", "establecim": "ESC N\u00b06 SAN JOSE DE CALASANZ", "502_total": "1483", "fake_id": "2069-2086", "187_total": "216", "leader": "502"}}, {"geometry": {"type": "Point", "coordinates": [-58.424613, -34.613952]}, "id": 4863, "properties": {"501_total": "531", "503_total": "787", "margin_of_victory": "145", "direccion": "DON BOSCO 4200", "leader_total": "932", "506_total": "72", "505_total": "141", "establecim": "ESC N\u00b016 JOSE M RAMOS MEJIA", "502_total": "932", "fake_id": "2111-2120", "187_total": "125", "leader": "502"}}, {"geometry": {"type": "Point", "coordinates": [-58.421444, -34.61486]}, "id": 4864, "properties": {"501_total": "542", "503_total": "770", "margin_of_victory": "149", "direccion": "HIPOLITO YRIGOYEN 3900", "leader_total": "919", "506_total": "76", "505_total": "160", "establecim": "INST SAN FRANCISCO DE SALES", "502_total": "919", "fake_id": "2121-2130", "187_total": "98", "leader": "502"}}, {"geometry": {"type": "Point", "coordinates": [-58.423555, -34.61493]}, "id": 4865, "properties": {"501_total": "257", "503_total": "367", "margin_of_victory": "95", "direccion": "HIPOLITO YRIGOYEN 4034", "leader_total": "462", "506_total": "43", "505_total": "69", "establecim": "INSTITUTO CARDOZO", "502_total": "462", "fake_id": "2106-2110", "187_total": "66", "leader": "502"}}, {"geometry": {"type": "Point", "coordinates": [-58.423203, -34.620386]}, "id": 4866, "properties": {"501_total": "614", "503_total": "892", "margin_of_victory": "99", "direccion": "MEXICO 4050", "leader_total": "991", "506_total": "87", "505_total": "166", "establecim": "INSTITUTO SAN ANTONIO", "502_total": "991", "fake_id": "2087-2097", "187_total": "115", "leader": "502"}}, {"geometry": {"type": "Point", "coordinates": [-58.426543, -34.615115]}, "id": 4867, "properties": {"501_total": "436", "503_total": "563", "margin_of_victory": "190", "direccion": "HIPOLITO YRIGOYEN 4238", "leader_total": "753", "506_total": "59", "505_total": "124", "establecim": "JARDIN DE INF INT CESAR COLL", "502_total": "753", "fake_id": "2098-2105", "187_total": "92", "leader": "502"}}, {"geometry": {"type": "Point", "coordinates": [-58.416246, -34.621792]}, "id": 4868, "properties": {"501_total": "330", "503_total": "407", "margin_of_victory": "77", "direccion": "AV BOEDO 760", "leader_total": "407", "506_total": "43", "505_total": "82", "establecim": "ENET N\u00b029 RECONQUISTA DE BS AS", "502_total": "330", "fake_id": "2155-2159", "187_total": "46", "leader": "503"}}, {"geometry": {"type": "Point", "coordinates": [-58.410157, -34.613021]}, "id": 4869, "properties": {"501_total": "318", "503_total": "388", "margin_of_victory": "27", "direccion": "GRAL URQUIZA 227", "leader_total": "388", "506_total": "38", "505_total": "76", "establecim": "ESC N\u00b013 GRAL J M ZAPIOLA", "502_total": "361", "fake_id": "2150-2154", "187_total": "46", "leader": "503"}}, {"geometry": {"type": "Point", "coordinates": [-58.41676, -34.620422]}, "id": 4870, "properties": {"501_total": "660", "503_total": "842", "margin_of_victory": "7", "direccion": "AV BOEDO 657", "leader_total": "842", "506_total": "69", "505_total": "224", "establecim": "ESC N\u00b022 MARTINA GURRUCHAGA", "502_total": "835", "fake_id": "2139-2149", "187_total": "125", "leader": "503"}}, {"geometry": {"type": "Point", "coordinates": [-58.422299, -34.619207]}, "id": 4871, "properties": {"501_total": "505", "503_total": "623", "margin_of_victory": "20", "direccion": "QUINTINO BOCAYUVA 620", "leader_total": "623", "506_total": "63", "505_total": "136", "establecim": "ESC N\u00b04 SALVADOR M DEL CARRIL", "502_total": "603", "fake_id": "2131-2138", "187_total": "80", "leader": "503"}}, {"geometry": {"type": "Point", "coordinates": [-58.421726, -34.61378]}, "id": 4872, "properties": {"501_total": "757", "503_total": "1002", "margin_of_victory": "58", "direccion": "YAPEYU 132", "leader_total": "1060", "506_total": "79", "505_total": "188", "establecim": "COLEGIO MARIA AUXILIADORA", "502_total": "1060", "fake_id": "2177-2189", "187_total": "148", "leader": "502"}}, {"geometry": {"type": "Point", "coordinates": [-58.421817, -34.614448]}, "id": 4873, "properties": {"501_total": "897", "503_total": "1280", "margin_of_victory": "58", "direccion": "YAPEYU 197", "leader_total": "1338", "506_total": "115", "505_total": "246", "establecim": "COLEGIO PIO IX", "502_total": "1338", "fake_id": "2160-2176", "187_total": "172", "leader": "502"}}, {"geometry": {"type": "Point", "coordinates": [-58.419504, -34.615678]}, "id": 4874, "properties": {"501_total": "658", "503_total": "942", "margin_of_victory": "36", "direccion": "AV BELGRANO 3767", "leader_total": "978", "506_total": "94", "505_total": "206", "establecim": "ESC N\u00b018 ANTONIO BERMEJO", "502_total": "978", "fake_id": "2202-2213", "187_total": "140", "leader": "502"}}, {"geometry": {"type": "Point", "coordinates": [-58.418444, -34.61039]}, "id": 4875, "properties": {"501_total": "226", "503_total": "309", "margin_of_victory": "31", "direccion": "BULNES 45", "leader_total": "340", "506_total": "22", "505_total": "66", "establecim": "ESC NAC DE CERAMICA N\u00b01", "502_total": "340", "fake_id": "2214-2217", "187_total": "47", "leader": "502"}}, {"geometry": {"type": "Point", "coordinates": [-58.421444, -34.61486]}, "id": 4876, "properties": {"501_total": "689", "503_total": "896", "margin_of_victory": "84", "direccion": "HIPOLITO YRIGOYEN 3900", "leader_total": "980", "506_total": "93", "505_total": "205", "establecim": "INST SAN FRANCISCO DE SALES", "502_total": "980", "fake_id": "2190-2201", "187_total": "136", "leader": "502"}}, {"geometry": {"type": "Point", "coordinates": [-58.416819, -34.610713]}, "id": 4877, "properties": {"501_total": "952", "503_total": "1201", "margin_of_victory": "174", "direccion": "AV RIVADAVIA 3577", "leader_total": "1375", "506_total": "131", "505_total": "278", "establecim": "COLEGIO NAC N\u00b03 M MORENO", "502_total": "1375", "fake_id": "2239-2255", "187_total": "175", "leader": "502"}}, {"geometry": {"type": "Point", "coordinates": [-58.417562, -34.607928]}, "id": 4878, "properties": {"501_total": "302", "503_total": "392", "margin_of_victory": "1", "direccion": "MARIO BRAVO 234/242", "leader_total": "392", "506_total": "42", "505_total": "79", "establecim": "ESC N\u00b018 ALEJANDRO CARBO", "502_total": "391", "fake_id": "2234-2238", "187_total": "61", "leader": "503"}}, {"geometry": {"type": "Point", "coordinates": [-58.415055, -34.606368]}, "id": 4879, "properties": {"501_total": "415", "503_total": "463", "margin_of_victory": "93", "direccion": "SANCHEZ DE BUSTAMANTE 260", "leader_total": "556", "506_total": "58", "505_total": "91", "establecim": "ESC N\u00b022 CARLOS J BENIELLI", "502_total": "556", "fake_id": "2275-2281", "187_total": "84", "leader": "502"}}, {"geometry": {"type": "Point", "coordinates": [-58.422427, -34.601151]}, "id": 4880, "properties": {"501_total": "936", "503_total": "1183", "margin_of_victory": "113", "direccion": "F ACU\u00d1A DE FIGUEROA 850", "leader_total": "1296", "506_total": "96", "505_total": "238", "establecim": "ESC N\u00ba19 FRANCISCO BALCARCE", "502_total": "1296", "fake_id": "2218-2233", "187_total": "211", "leader": "502"}}, {"geometry": {"type": "Point", "coordinates": [-58.415184, -34.609306]}, "id": 4881, "properties": {"501_total": "1084", "503_total": "1364", "margin_of_victory": "200", "direccion": "SANCHEZ DE BUSTAMANTE 126", "leader_total": "1564", "506_total": "174", "505_total": "271", "establecim": "INSTITUTO TIERRA SANTA", "502_total": "1564", "fake_id": "2256-2274", "187_total": "184", "leader": "502"}}, {"geometry": {"type": "Point", "coordinates": [-58.416483, -34.602774]}, "id": 4882, "properties": {"501_total": "989", "503_total": "1172", "margin_of_victory": "104", "direccion": "MARIO BRAVO 563", "leader_total": "1276", "506_total": "105", "505_total": "272", "establecim": "COLEGIO INMACULADA CONCEPCION", "502_total": "1276", "fake_id": "2282-2297", "187_total": "146", "leader": "502"}}, {"geometry": {"type": "Point", "coordinates": [-58.420073, -34.598406]}, "id": 4883, "properties": {"501_total": "1290", "503_total": "1721", "margin_of_victory": "262", "direccion": "AV MEDRANO 951", "leader_total": "1983", "506_total": "160", "505_total": "359", "establecim": "UTN FACULTAD REGIONAL BS AS", "502_total": "1983", "fake_id": "2298-2321", "187_total": "293", "leader": "502"}}, {"geometry": {"type": "Point", "coordinates": [-58.425364, -34.598011]}, "id": 4884, "properties": {"501_total": "546", "503_total": "721", "margin_of_victory": "127", "direccion": "AV E DE ISRAEL 4230/PALESTINA  1098", "leader_total": "848", "506_total": "90", "505_total": "167", "establecim": "BENITO NAZAR", "502_total": "848", "fake_id": "2334-2343", "187_total": "113", "leader": "502"}}, {"geometry": {"type": "Point", "coordinates": [-58.422134, -34.601043]}, "id": 4885, "properties": {"501_total": "461", "503_total": "572", "margin_of_victory": "102", "direccion": "F ACU\u00d1A DE FIGUEROA  855/MEDRANO 760", "leader_total": "674", "506_total": "73", "505_total": "103", "establecim": "COLEGIO BETANIA", "502_total": "674", "fake_id": "2352-2359", "187_total": "83", "leader": "502"}}, {"geometry": {"type": "Point", "coordinates": [-58.425687, -34.602082]}, "id": 4886, "properties": {"501_total": "462", "503_total": "571", "margin_of_victory": "77", "direccion": "PALESTINA 748", "leader_total": "648", "506_total": "72", "505_total": "137", "establecim": "COLEGIO GALILEO GALILEI", "502_total": "648", "fake_id": "2344-2351", "187_total": "104", "leader": "502"}}, {"geometry": {"type": "Point", "coordinates": [-58.424999, -34.602576]}, "id": 4887, "properties": {"501_total": "686", "503_total": "818", "margin_of_victory": "198", "direccion": "HUMAHUACA 4260/CORRIENTES  4261", "leader_total": "1016", "506_total": "113", "505_total": "193", "establecim": "ESC N\u00ba 7 JOSE MARIA TORRES", "502_total": "1016", "fake_id": "2322-2333", "187_total": "163", "leader": "502"}}, {"geometry": {"type": "Point", "coordinates": [-58.426547, -34.603379]}, "id": 4888, "properties": {"501_total": "330", "503_total": "417", "margin_of_victory": "119", "direccion": "ROBERTO NU\u00d1EZ 4355", "leader_total": "536", "506_total": "45", "505_total": "89", "establecim": "ESC N\u00b011 PCIA DE JUJUY", "502_total": "536", "fake_id": "2396-2401", "187_total": "83", "leader": "502"}}, {"geometry": {"type": "Point", "coordinates": [-58.427471, -34.60941]}, "id": 4889, "properties": {"501_total": "704", "503_total": "886", "margin_of_victory": "219", "direccion": "PRINGLES 263", "leader_total": "1105", "506_total": "118", "505_total": "218", "establecim": "ESC N\u00b023 GRAL MANUEL BELGRANO", "502_total": "1105", "fake_id": "2374-2386", "187_total": "206", "leader": "502"}}, {"geometry": {"type": "Point", "coordinates": [-58.430101, -34.603064]}, "id": 4890, "properties": {"501_total": "461", "503_total": "605", "margin_of_victory": "217", "direccion": "LAMBARE 975", "leader_total": "822", "506_total": "88", "505_total": "148", "establecim": "ESC N\u00b03 MANUEL SOLA", "502_total": "822", "fake_id": "2387-2395", "187_total": "122", "leader": "502"}}, {"geometry": {"type": "Point", "coordinates": [-58.428948, -34.609572]}, "id": 4891, "properties": {"501_total": "228", "503_total": "269", "margin_of_victory": "60", "direccion": "YATAY 255", "leader_total": "329", "506_total": "28", "505_total": "59", "establecim": "INST PRIV ARG JAPONES (PRIM)", "502_total": "329", "fake_id": "2411-2414", "187_total": "64", "leader": "502"}}, {"geometry": {"type": "Point", "coordinates": [-58.427774, -34.609175]},